
$GPRMC,235947.799,V,,,,,0.00,0.00,050180,,,N*48
$GPGGA,235948.000,,,,,0,00,,,M,,M,,*79
$GPRMC,235948.000,V,,,,,0.00,0.00,050180,,,N*40
$GPGGA,235948.200,,,,,0,00,,,M,,M,,*7B
$GPRMC,235948.200,V,,,,,0.00,0.00,050180,,,N*42
$GPGGA,235948.400,,,,,0,00,,,M,,M,,*7D
$GPRMC,235948.400,V,,,,,0.00,0.00,050180,,,N*44
$GPGGA,235948.599,,,,,0,00,,,M,,M,,*7C
$GPRMC,235948.599,V,,,,,0.00,0.00,050180,,,N*45
$GPGGA,235948.799,,,,,0,00,,,M,,M,,*7E
$GPRMC,235948.799,V,,,,,0.00,0.00,050180,,,N*47
$GPGGA,235949.000,,,,,0,00,,,M,,M,,*78
$GPRMC,235949.000,V,,,,,0.00,0.00,050180,,,N*41
$GPGGA,235949.200,,,,,0,00,,,M,,M,,*7A
$GPRMC,235949.200,V,,,,,0.00,0.00,050180,,,N*43
$GPGGA,235949.400,,,,,0,00,,,M,,M,,*7C
$GPRMC,235949.400,V,,,,,0.00,0.00,050180,,,N*45
$GPGGA,235949.599,,,,,0,00,,,M,,M,,*7D
$GPRMC,235949.599,V,,,,,0.00,0.00,050180,,,N*44
$GPGGA,235949.799,,,,,0,00,,,M,,M,,*7F
$GPRMC,235949.799,V,,,,,0.00,0.00,050180,,,N*46
$GPGGA,235950.000,,,,,0,00,,,M,,M,,*70
$GPRMC,235950.000,V,,,,,0.00,0.00,050180,,,N*49
$GPGGA,235950.199,,,,,0,00,,,M,,M,,*71
$GPRMC,235950.199,V,,,,,0.00,0.00,050180,,,N*48
$GPGGA,235950.400,,,,,0,00,,,M,,M,,*74
$GPRMC,235950.400,V,,,,,0.00,0.00,050180,,,N*4D
$GPGGA,235950.599,,,,,0,00,,,M,,M,,*75
$GPRMC,235950.599,V,,,,,0.00,0.00,050180,,,N*4C
$GPGGA,235950.800,,,,,0,00,,,M,,M,,*78
$GPRMC,235950.800,V,,,,,0.00,0.00,050180,,,N*41
$GPGGA,235951.000,,,,,0,00,,,M,,M,,*71
$GPRMC,235951.000,V,,,,,0.00,0.00,050180,,,N*48
$GPGGA,235951.199,,,,,0,00,,,M,,M,,*70
$GPRMC,235951.199,V,,,,,0.00,0.00,050180,,,N*49
$GPGGA,235951.400,,,,,0,00,,,M,,M,,*75
$GPRMC,235951.400,V,,,,,0.00,0.00,050180,,,N*4C
$GPGGA,235951.599,,,,,0,00,,,M,,M,,*74
$GPRMC,235951.599,V,,,,,0.00,0.00,050180,,,N*4D
$GPGGA,235951.800,,,,,0,00,,,M,,M,,*79
$GPRMC,235951.800,V,,,,,0.00,0.00,050180,,,N*40
$GPGGA,235951.839,,,,,0,00,,,M,,M,,*73
$GPRMC,235951.839,V,,,,,0.00,0.00,050180,,,N*4A
$GPGGA,235951.880,,,,,0,00,,,M,,M,,*71
$GPRMC,235951.880,V,,,,,0.00,0.00,050180,,,N*48
$GPGGA,235952.080,,,,,0,00,,,M,,M,,*7A
$GPRMC,235952.080,V,,,,,0.00,0.00,050180,,,N*43
$GPGGA,235952.279,,,,,0,00,,,M,,M,,*7E
$GPRMC,235952.279,V,,,,,0.00,0.00,050180,,,N*47
$GPGGA,235952.480,,,,,0,00,,,M,,M,,*7E
$GPRMC,235952.480,V,,,,,0.00,0.00,050180,,,N*47
$GPGGA,235952.679,,,,,0,00,,,M,,M,,*7A
$GPRMC,235952.679,V,,,,,0.00,0.00,050180,,,N*43
$GPGGA,235952.880,,,,,0,00,,,M,,M,,*72
$GPRMC,235952.880,V,,,,,0.00,0.00,050180,,,N*4B
$GPGGA,181207.326,,,,,0,00,,,M,,M,,*72
$GPRMC,181207.326,V,,,,,0.00,0.00,120180,,,N*4D
$GPGGA,181207.525,,,,,0,00,,,M,,M,,*77
$GPRMC,181207.726,V,,,,,0.00,0.00,120180,,,N*49
$GPGGA,181207.925,,,,,0,00,,,M,,M,,*7B
$GPRMC,181207.925,V,,,,,0.00,0.00,120180,,,N*44
$GPGGA,181208.126,,,,,0,00,,,M,,M,,*7F
$GPRMC,181208.126,V,,,,,0.00,0.00,120180,,,N*40
$GPGGA,181208.326,,,,,0,00,,,M,,M,,*7D
$GPRMC,181208.326,V,,,,,0.00,0.00,120180,,,N*42
$GPGGA,181208.525,,,,,0,00,,,M,,M,,*78
$GPRMC,181208.525,V,,,,,0.00,0.00,120180,,,N*47
$GPGGA,181208.726,,,,,0,00,,,M,,M,,*79
$GPRMC,181208.726,V,,,,,0.00,0.00,120180,,,N*46
$GPGGA,181208.925,,,,,0,00,,,M,,M,,*74
$GPRMC,181208.925,V,,,,,0.00,0.00,120180,,,N*4B
$GPGGA,181209.126,,,,,0,00,,,M,,M,,*7E
$GPRMC,181209.126,V,,,,,0.00,0.00,120180,,,N*41
$GPGGA,181209.326,,,,,0,00,,,M,,M,,*7C
$GPRMC,181209.326,V,,,,,0.00,0.00,120180,,,N*43
$GPGGA,181209.525,,,,,0,00,,,M,,M,,*79
$GPRMC,181209.525,V,,,,,0.00,0.00,120180,,,N*46
$GPGGA,181209.726,,,,,0,00,,,M,,M,,*78
$GPRMC,181209.726,V,,,,,0.00,0.00,120180,,,N*47
$GPGGA,181209.925,,,,,0,00,,,M,,M,,*75
$GPRMC,181209.925,V,,,,,0.00,0.00,120180,,,N*4A
$GPGGA,181210.126,,,,,0,00,,,M,,M,,*76
$GPRMC,181210.126,V,,,,,0.00,0.00,120180,,,N*49
$GPGGA,181210.326,,,,,0,00,,,M,,M,,*74
$GPRMC,181210.326,V,,,,,0.00,0.00,120180,,,N*4B
$GPGGA,181210.525,,,,,0,00,,,M,,M,,*71
$GPRMC,181210.525,V,,,,,0.00,0.00,120180,,,N*4E
$GPGGA,181210.726,,,,,0,00,,,M,,M,,*70
$GPRMC,181210.726,V,,,,,0.00,0.00,120180,,,N*4F
$GPGGA,181210.925,,,,,0,00,,,M,,M,,*7D
$GPRMC,181210.925,V,,,,,0.00,0.00,120180,,,N*42
$GPGGA,181211.126,,,,,0,00,,,M,,M,,*77
$GPRMC,181211.126,V,,,,,0.00,0.00,120180,,,N*48
$GPGGA,181211.326,,,,,0,00,,,M,,M,,*75
$GPRMC,181211.326,V,,,,,0.00,0.00,120180,,,N*4A
$GPGGA,181211.525,,,,,0,00,,,M,,M,,*70
$GPRMC,181211.525,V,,,,,0.00,0.00,120180,,,N*4F
$GPGGA,181211.726,,,,,0,00,,,M,,M,,*71
$GPRMC,181211.726,V,,,,,0.00,0.00,120180,,,N*4E
$GPGGA,181211.925,,,,,0,00,,,M,,M,,*7C
$GPRMC,181211.925,V,,,,,0.00,0.00,120180,,,N*43
$GPGGA,181212.086,,,,,0,00,,,M,,M,,*7F
$GPRMC,181212.086,V,,,,,0.00,0.00,120180,,,N*40
$GPGGA,181212.126,,,,,0,00,,,M,,M,,*74
$GPRMC,181212.126,V,,,,,0.00,0.00,120180,,,N*4B
$GPGGA,181212.326,,,,,0,00,,,M,,M,,*76
$GPRMC,181212.326,V,,,,,0.00,0.00,120180,,,N*49
$GPGGA,181212.525,,,,,0,00,,,M,,M,,*73
$GPRMC,181212.525,V,,,,,0.00,0.00,120180,,,N*4C
$GPGGA,181212.726,,,,,0,00,,,M,,M,,*72
$GPRMC,181212.726,V,,,,,0.00,0.00,120180,,,N*4D
$GPGGA,181212.925,,,,,0,00,,,M,,M,,*7F
$GPRMC,181212.925,V,,,,,0.00,0.00,120180,,,N*40
$GPGGA,181213.126,,,,,0,00,,,M,,M,,*75
$GPRMC,181213.126,V,,,,,0.00,0.00,120180,,,N*4A
$GPGGA,181213.326,,,,,0,00,,,M,,M,,*77
$GPGGA,181213.525,,,,,0,00,,,M,,M,,*72
$GPRMC,181213.525,V,,,,,0.00,0.00,120180,,,N*4D
$GPGGA,181213.726,,,,,0,00,,,M,,M,,*73
$GPRMC,181213.726,V,,,,,0.00,0.00,120180,,,N*4C
$GPGGA,181213.925,,,,,0,00,,,M,,M,,*7E
$GPRMC,181213.925,V,,,,,0.00,0.00,120180,,,N*41
$GPGGA,181214.126,,,,,0,00,,,M,,M,,*72
$GPRMC,181214.126,V,,,,,0.00,0.00,120180,,,N*4D
$GPGGA,181214.326,,,,,0,00,,,M,,M,,*70
$GPRMC,181214.326,V,,,,,0.00,0.00,120180,,,N*4F
$GPGGA,181214.525,,,,,0,00,,,M,,M,,*75
$GPRMC,181214.525,V,,,,,0.00,0.00,120180,,,N*4A
$GPGGA,181214.726,,,,,0,00,,,M,,M,,*74
$GPRMC,181214.726,V,,,,,0.00,0.00,120180,,,N*4B
$GPGGA,181214.925,,,,,0,00,,,M,,M,,*79
$GPRMC,181214.925,V,,,,,0.00,0.00,120180,,,N*46
$GPGGA,181215.126,,,,,0,00,,,M,,M,,*73
$GPRMC,181215.126,V,,,,,0.00,0.00,120180,,,N*4C
$GPGGA,181215.326,,,,,0,00,,,M,,M,,*71
$GPRMC,181215.326,V,,,,,0.00,0.00,120180,,,N*4E
$GPGGA,181215.525,,,,,0,00,,,M,,M,,*74
$GPRMC,181215.525,V,,,,,0.00,0.00,120180,,,N*4B
$GPGGA,181215.726,,,,,0,00,,,M,,M,,*75
$GPRMC,181215.726,V,,,,,0.00,0.00,120180,,,N*4A
$GPGGA,181215.925,,,,,0,00,,,M,,M,,*78
$GPRMC,181215.925,V,,,,,0.00,0.00,120180,,,N*47
$GPGGA,181216.126,,,,,0,00,,,M,,M,,*70
$GPRMC,181216.126,V,,,,,0.00,0.00,120180,,,N*4F
$GPGGA,181216.326,,,,,0,00,,,M,,M,,*72
$GPRMC,181216.326,V,,,,,0.00,0.00,120180,,,N*4D
$GPGGA,181216.525,,,,,0,00,,,M,,M,,*77
$GPRMC,181216.525,V,,,,,0.00,0.00,120180,,,N*48
$GPGGA,181216.726,,,,,0,00,,,M,,M,,*76
$GPRMC,181216.726,V,,,,,0.00,0.00,120180,,,N*49
$GPGGA,181216.925,,,,,0,00,,,M,,M,,*7B
$GPRMC,181216.925,V,,,,,0.00,0.00,120180,,,N*44
$GPGGA,181217.126,,,,,0,00,,,M,,M,,*71
$GPRMC,181217.126,V,,,,,0.00,0.00,120180,,,N*4E
$GPGGA,181217.326,,,,,0,00,,,M,,M,,*73
$GPRMC,181217.326,V,,,,,0.00,0.00,120180,,,N*4C
$GPGGA,181217.525,,,,,0,00,,,M,,M,,*76
$GPRMC,181217.525,V,,,,,0.00,0.00,120180,,,N*49
$GPGGA,181217.726,,,,,0,00,,,M,,M,,*77
$GPRMC,181217.726,V,,,,,0.00,0.00,120180,,,N*48
$GPGGA,181217.925,,,,,0,00,,,M,,M,,*7A
$GPRMC,181217.925,V,,,,,0.00,0.00,120180,,,N*45
$GPGGA,181218.099,,,,,0,00,,,M,,M,,*7B
$GPRMC,181218.099,V,,,,,0.00,0.00,120180,,,N*44
$GPGGA,181218.298,,,,,0,00,,,M,,M,,*78
$GPRMC,181218.298,V,,,,,0.00,0.00,120180,,,N*47
$GPGGA,181218.498,,,,,0,00,,,M,,M,,*7E
$GPRMC,181218.498,V,,,,,0.00,0.00,120180,,,N*41
$GPGGA,181218.699,,,,,0,00,,,M,,M,,*7D
$GPRMC,181218.699,V,,,,,0.00,0.00,120180,,,N*42
$GPRMC,181218.898,V,,,,,0.00,0.00,120180,,,N*4D
$GPGGA,181219.099,,,,,0,00,,,M,,M,,*7A
$GPRMC,181219.099,V,,,,,0.00,0.00,120180,,,N*45
$GPGGA,181219.298,,,,,0,00,,,M,,M,,*79
$GPRMC,181219.298,V,,,,,0.00,0.00,120180,,,N*46
$GPGGA,181219.498,,,,,0,00,,,M,,M,,*7F
$GPRMC,181219.498,V,,,,,0.00,0.00,120180,,,N*40
$GPGGA,181219.699,,,,,0,00,,,M,,M,,*7C
$GPRMC,181219.699,V,,,,,0.00,0.00,120180,,,N*43
$GPGGA,181219.898,,,,,0,00,,,M,,M,,*73
$GPRMC,181219.898,V,,,,,0.00,0.00,120180,,,N*4C
$GPGGA,181220.099,,,,,0,00,,,M,,M,,*70
$GPRMC,181220.099,V,,,,,0.00,0.00,120180,,,N*4F
$GPGGA,181220.298,,,,,0,00,,,M,,M,,*73
$GPRMC,181220.298,V,,,,,0.00,0.00,120180,,,N*4C
$GPGGA,181220.498,,,,,0,00,,,M,,M,,*75
$GPRMC,181220.498,V,,,,,0.00,0.00,120180,,,N*4A
$GPGGA,181220.699,,,,,0,00,,,M,,M,,*76
$GPRMC,181220.699,V,,,,,0.00,0.00,120180,,,N*49
$GPGGA,181220.898,,,,,0,00,,,M,,M,,*79
$GPRMC,181220.898,V,,,,,0.00,0.00,120180,,,N*46
$GPGGA,181221.099,,,,,0,00,,,M,,M,,*71
$GPRMC,181221.099,V,,,,,0.00,0.00,120180,,,N*4E
$GPGGA,181221.298,,,,,0,00,,,M,,M,,*72
$GPRMC,181221.298,V,,,,,0.00,0.00,120180,,,N*4D
$GPGGA,181221.498,,,,,0,00,,,M,,M,,*74
$GPRMC,181221.498,V,,,,,0.00,0.00,120180,,,N*4B
$GPGGA,181221.699,,,,,0,00,,,M,,M,,*77
$GPRMC,181221.699,V,,,,,0.00,0.00,120180,,,N*48
$GPGGA,181221.898,,,,,0,00,,,M,,M,,*78
$GPRMC,181221.898,V,,,,,0.00,0.00,120180,,,N*47
$GPGGA,181222.099,,,,,0,00,,,M,,M,,*72
$GPRMC,181222.099,V,,,,,0.00,0.00,120180,,,N*4D
$GPGGA,181222.298,,,,,0,00,,,M,,M,,*71
$GPRMC,181222.298,V,,,,,0.00,0.00,120180,,,N*4E
$GPGGA,181222.498,,,,,0,00,,,M,,M,,*77
$GPRMC,181222.498,V,,,,,0.00,0.00,120180,,,N*48
$GPGGA,181222.699,,,,,0,00,,,M,,M,,*74
$GPRMC,181222.699,V,,,,,0.00,0.00,120180,,,N*4B
$GPGGA,181222.898,,,,,0,00,,,M,,M,,*7B
$GPRMC,181222.898,V,,,,,0.00,0.00,120180,,,N*44
$GPGGA,181223.099,,,,,0,00,,,M,,M,,*73
$GPRMC,181223.099,V,,,,,0.00,0.00,120180,,,N*4C
$GPGGA,181223.298,,,,,0,00,,,M,,M,,*70
$GPRMC,181223.298,V,,,,,0.00,0.00,120180,,,N*4F
$GPGGA,181223.498,,,,,0,00,,,M,,M,,*76
$GPRMC,181223.498,V,,,,,0.00,0.00,120180,,,N*49
$GPGGA,181223.699,,,,,0,00,,,M,,M,,*75
$GPRMC,181223.699,V,,,,,0.00,0.00,120180,,,N*4A
$GPGGA,181223.898,,,,,0,00,,,M,,M,,*7A
$GPRMC,181223.898,V,,,,,0.00,0.00,120180,,,N*45
$GPGGA,181224.099,,,,,0,00,,,M,,M,,*74
$GPRMC,181224.099,V,,,,,0.00,0.00,120180,,,N*4B
$GPRMC,181224.298,V,,,,,0.00,0.00,120180,,,N*48
$GPRMC,181224.498,V,,,,,0.00,0.00,120180,,,N*4E
$GPRMC,181224.699,V,,,,,0.00,0.00,120180,,,N*4D
$GPGGA,181224.898,,,,,0,00,,,M,,M,,*7D
$GPRMC,181224.898,V,,,,,0.00,0.00,120180,,,N*42
$GPGGA,181225.099,,,,,0,00,,,M,,M,,*75
$GPRMC,181225.099,V,,,,,0.00,0.00,120180,,,N*4A
$GPGGA,181225.298,,,,,0,00,,,M,,M,,*76
$GPRMC,181225.298,V,,,,,0.00,0.00,120180,,,N*49
$GPGGA,181225.498,,,,,0,00,,,M,,M,,*70
$GPRMC,181225.498,V,,,,,0.00,0.00,120180,,,N*4F
$GPGGA,181225.699,,,,,0,00,,,M,,M,,*73
$GPRMC,181225.699,V,,,,,0.00,0.00,120180,,,N*4C
$GPGGA,181225.898,,,,,0,00,,,M,,M,,*7C
$GPRMC,181225.898,V,,,,,0.00,0.00,120180,,,N*43
$GPGGA,181226.099,,,,,0,00,,,M,,M,,*76
$GPRMC,181226.099,V,,,,,0.00,0.00,120180,,,N*49
$GPGGA,181226.298,,,,,0,00,,,M,,M,,*75
$GPRMC,181226.298,V,,,,,0.00,0.00,120180,,,N*4A
$GPGGA,181226.498,,,,,0,00,,,M,,M,,*73
$GPRMC,181226.498,V,,,,,0.00,0.00,120180,,,N*4C
$GPGGA,181226.699,,,,,0,00,,,M,,M,,*70
$GPRMC,181226.699,V,,,,,0.00,0.00,120180,,,N*4F
$GPGGA,181226.898,,,,,0,00,,,M,,M,,*7F
$GPRMC,181226.898,V,,,,,0.00,0.00,120180,,,N*40
$GPGGA,181227.099,,,,,0,00,,,M,,M,,*77
$GPRMC,181227.099,V,,,,,0.00,0.00,120180,,,N*48
$GPGGA,181227.298,,,,,0,00,,,M,,M,,*74
$GPRMC,181227.298,V,,,,,0.00,0.00,120180,,,N*4B
$GPGGA,181227.498,,,,,0,00,,,M,,M,,*72
$GPRMC,181227.498,V,,,,,0.00,0.00,120180,,,N*4D
$GPGGA,181227.699,,,,,0,00,,,M,,M,,*71
$GPRMC,181227.699,V,,,,,0.00,0.00,120180,,,N*4E
$GPGGA,181227.898,,,,,0,00,,,M,,M,,*7E
$GPRMC,181227.898,V,,,,,0.00,0.00,120180,,,N*41
$GPGGA,181228.099,,,,,0,00,,,M,,M,,*78
$GPRMC,181228.099,V,,,,,0.00,0.00,120180,,,N*47
$GPGGA,181228.298,,,,,0,00,,,M,,M,,*7B
$GPRMC,181228.298,V,,,,,0.00,0.00,120180,,,N*44
$GPGGA,181228.498,,,,,0,00,,,M,,M,,*7D
$GPRMC,181228.498,V,,,,,0.00,0.00,120180,,,N*42
$GPGGA,181228.699,,,,,0,00,,,M,,M,,*7E
$GPRMC,181228.699,V,,,,,0.00,0.00,120180,,,N*41
$GPGGA,181228.898,,,,,0,00,,,M,,M,,*71
$GPRMC,181228.898,V,,,,,0.00,0.00,120180,,,N*4E
$GPGGA,181229.099,,,,,0,00,,,M,,M,,*79
$GPRMC,181229.099,V,,,,,0.00,0.00,120180,,,N*46
$GPGGA,181229.298,,,,,0,00,,,M,,M,,*7A
$GPRMC,181229.298,V,,,,,0.00,0.00,120180,,,N*45
$GPGGA,181229.498,,,,,0,00,,,M,,M,,*7C
$GPRMC,181229.498,V,,,,,0.00,0.00,120180,,,N*43
$GPGGA,181229.699,,,,,0,00,,,M,,M,,*7F
$GPRMC,181229.699,V,,,,,0.00,0.00,120180,,,N*40
$GPGGA,181229.898,,,,,0,00,,,M,,M,,*70
$GPRMC,181229.898,V,,,,,0.00,0.00,120180,,,N*4F
$GPRMC,181230.096,A,3546.0533,N,07839.7063,W,0.04,310.34,030819,,,A*7E
$GPGGA,181230.296,3546.0532,N,07839.7064,W,1,06,1.23,109.8,M,-33.0,M,,*51
$GPRMC,181230.296,A,3546.0532,N,07839.7064,W,0.02,124.67,030819,,,A*7F
$GPGGA,181230.600,3546.0531,N,07839.7065,W,1,06,1.23,110.2,M,-33.0,M,,*5A
$GPRMC,181230.600,A,3546.0531,N,07839.7065,W,0.02,96.67,030819,,,A*4E
$GPGGA,181230.800,3546.0532,N,07839.7065,W,1,06,1.23,110.4,M,-33.0,M,,*51
$GPRMC,181230.800,A,3546.0532,N,07839.7065,W,0.52,52.93,030819,,,A*45
$GPGGA,181231.000,3546.0532,N,07839.7065,W,1,06,1.23,110.7,M,-33.0,M,,*5B
$GPRMC,181231.000,A,3546.0532,N,07839.7065,W,0.22,39.18,030819,,,A*45
$GPGGA,181231.200,3546.0531,N,07839.7065,W,1,06,1.23,111.4,M,-33.0,M,,*58
$GPRMC,181231.200,A,3546.0531,N,07839.7065,W,0.07,37.48,030819,,,A*48
$GPGGA,181231.400,3546.0531,N,07839.7065,W,1,06,1.23,111.7,M,-33.0,M,,*5D
$GPRMC,181231.400,A,3546.0531,N,07839.7065,W,0.02,89.66,030819,,,A*42
$GPGGA,181231.600,3546.0530,N,07839.7064,W,1,06,1.23,111.9,M,-33.0,M,,*51
$GPRMC,181231.600,A,3546.0530,N,07839.7064,W,0.02,121.79,030819,,,A*7D
$GPGGA,181231.800,3546.0530,N,07839.7064,W,1,06,1.23,112.2,M,-33.0,M,,*57
$GPRMC,181231.800,A,3546.0530,N,07839.7064,W,0.03,166.90,030819,,,A*76
$GPGGA,181232.000,3546.0529,N,07839.7064,W,1,06,1.23,112.2,M,-33.0,M,,*54
$GPRMC,181232.000,A,3546.0529,N,07839.7064,W,0.01,48.92,030819,,,A*48
$GPGGA,181232.200,3546.0529,N,07839.7064,W,1,06,1.23,112.1,M,-33.0,M,,*55
$GPRMC,181232.200,A,3546.0529,N,07839.7064,W,0.06,1.90,030819,,,A*72
$GPGGA,181232.400,3546.0529,N,07839.7064,W,1,06,1.26,112.1,M,-33.0,M,,*56
$GPRMC,181232.400,A,3546.0529,N,07839.7064,W,0.05,326.06,030819,,,A*7E
$GPGGA,181232.600,3546.0529,N,07839.7064,W,1,06,1.23,112.0,M,-33.0,M,,*50
$GPRMC,181232.600,A,3546.0529,N,07839.7064,W,0.02,302.93,030819,,,A*71
$GPGGA,181232.800,3546.0529,N,07839.7064,W,1,06,1.23,111.7,M,-33.0,M,,*5A
$GPRMC,181232.800,A,3546.0529,N,07839.7064,W,0.03,199.31,030819,,,A*76
$GPGGA,181233.000,3546.0528,N,07839.7063,W,1,06,1.23,111.3,M,-33.0,M,,*51
$GPRMC,181233.000,A,3546.0528,N,07839.7063,W,0.01,134.48,030819,,,A*72
$GPGGA,181233.200,3546.0528,N,07839.7063,W,1,06,1.23,111.0,M,-33.0,M,,*50
$GPRMC,181233.200,A,3546.0528,N,07839.7063,W,0.02,317.72,030819,,,A*79
$GPGGA,181233.400,3546.0528,N,07839.7063,W,1,06,1.23,110.6,M,-33.0,M,,*51
$GPRMC,181233.400,A,3546.0528,N,07839.7063,W,0.01,85.20,030819,,,A*43
$GPGGA,181233.600,3546.0528,N,07839.7062,W,1,06,1.23,110.2,M,-33.0,M,,*56
$GPRMC,181233.600,A,3546.0528,N,07839.7062,W,0.02,303.05,030819,,,A*79
$GPGGA,181233.800,3546.0528,N,07839.7062,W,1,06,1.23,109.9,M,-33.0,M,,*5B
$GPRMC,181233.800,A,3546.0528,N,07839.7062,W,0.04,329.88,030819,,,A*7C
$GPGGA,181234.000,3546.0528,N,07839.7061,W,1,06,1.23,109.7,M,-33.0,M,,*59
$GPRMC,181234.000,A,3546.0528,N,07839.7061,W,0.01,328.40,030819,,,A*70
$GPGGA,181234.200,3546.0527,N,07839.7061,W,1,06,1.23,109.4,M,-33.0,M,,*57
$GPRMC,181234.200,A,3546.0527,N,07839.7061,W,0.01,62.44,030819,,,A*44
$GPGGA,181234.400,3546.0527,N,07839.7060,W,1,06,1.23,109.0,M,-33.0,M,,*54
$GPRMC,181234.400,A,3546.0527,N,07839.7060,W,0.05,142.43,030819,,,A*73
$GPGGA,181234.600,3546.0526,N,07839.7060,W,1,06,1.23,108.8,M,-33.0,M,,*5E
$GPRMC,181234.600,A,3546.0526,N,07839.7060,W,0.04,252.26,030819,,,A*70
$GPGGA,181234.800,3546.0526,N,07839.7060,W,1,06,1.23,108.6,M,-33.0,M,,*5E
$GPRMC,181234.800,A,3546.0526,N,07839.7060,W,0.02,52.88,030819,,,A*4E
$GPGGA,181235.000,3546.0526,N,07839.7059,W,1,06,1.23,108.5,M,-33.0,M,,*5E
$GPRMC,181235.000,A,3546.0526,N,07839.7059,W,0.04,255.06,030819,,,A*78
$GPGGA,181235.200,3546.0526,N,07839.7059,W,1,06,1.24,108.2,M,-33.0,M,,*5C
$GPRMC,181235.200,A,3546.0526,N,07839.7059,W,0.04,59.01,030819,,,A*43
$GPGGA,181235.400,3546.0526,N,07839.7059,W,1,06,1.23,108.0,M,-33.0,M,,*5F
$GPRMC,181235.400,A,3546.0526,N,07839.7059,W,0.04,42.38,030819,,,A*45
$GPGGA,181235.600,3546.0525,N,07839.7058,W,1,06,1.23,107.8,M,-33.0,M,,*58
$GPRMC,181235.600,A,3546.0525,N,07839.7058,W,0.04,268.85,030819,,,A*79
$GPGGA,181235.800,3546.0526,N,07839.7058,W,1,06,1.23,107.6,M,-33.0,M,,*5B
$GPGGA,181236.000,3546.0526,N,07839.7058,W,1,06,1.24,107.4,M,-33.0,M,,*55
$GPGGA,181236.200,3546.0526,N,07839.7057,W,1,06,1.23,107.2,M,-33.0,M,,*59
$GPRMC,181236.200,A,3546.0526,N,07839.7057,W,0.04,307.03,030819,,,A*74
$GPGGA,181236.400,3546.0525,N,07839.7057,W,1,06,1.24,107.1,M,-33.0,M,,*58
$GPRMC,181236.400,A,3546.0525,N,07839.7057,W,0.05,41.23,030819,,,A*43
$GPGGA,181236.600,3546.0525,N,07839.7057,W,1,06,1.24,107.0,M,-33.0,M,,*5B
$GPRMC,181236.600,A,3546.0525,N,07839.7057,W,0.02,357.25,030819,,,A*74
$GPGGA,181236.800,3546.0525,N,07839.7057,W,1,06,1.26,106.8,M,-33.0,M,,*5E
$GPRMC,181236.800,A,3546.0525,N,07839.7057,W,0.02,236.85,030819,,,A*76
$GPGGA,181237.000,3546.0525,N,07839.7057,W,1,06,1.24,106.7,M,-33.0,M,,*5A
$GPRMC,181237.000,A,3546.0525,N,07839.7057,W,0.03,21.89,030819,,,A*46
$GPGGA,181237.200,3546.0525,N,07839.7056,W,1,06,1.24,106.6,M,-33.0,M,,*58
$GPRMC,181237.200,A,3546.0525,N,07839.7056,W,0.07,17.12,030819,,,A*46
$GPGGA,181237.400,3546.0525,N,07839.7056,W,1,06,1.24,106.5,M,-33.0,M,,*5D
$GPRMC,181237.400,A,3546.0525,N,07839.7056,W,0.02,14.20,030819,,,A*47
$GPGGA,181237.600,3546.0525,N,07839.7056,W,1,06,1.26,106.3,M,-33.0,M,,*5B
$GPRMC,181237.600,A,3546.0525,N,07839.7056,W,0.03,215.91,030819,,,A*7D
$GPGGA,181237.800,3546.0525,N,07839.7055,W,1,06,1.23,106.2,M,-33.0,M,,*52
$GPRMC,181237.800,A,3546.0525,N,07839.7055,W,0.02,159.20,030819,,,A*70
$GPGGA,181238.000,3546.0525,N,07839.7055,W,1,06,1.24,106.1,M,-33.0,M,,*51
$GPRMC,181238.000,A,3546.0525,N,07839.7055,W,0.02,188.50,030819,,,A*7C
$GPGGA,181238.200,3546.0525,N,07839.7055,W,1,06,1.24,106.1,M,-33.0,M,,*53
$GPRMC,181238.200,A,3546.0525,N,07839.7055,W,0.02,137.19,030819,,,A*77
$GPGGA,181238.400,3546.0526,N,07839.7055,W,1,06,1.24,106.0,M,-33.0,M,,*57
$GPRMC,181238.400,A,3546.0526,N,07839.7055,W,0.02,66.05,030819,,,A*4A
$GPGGA,181238.600,3546.0526,N,07839.7055,W,1,06,1.23,105.9,M,-33.0,M,,*58
$GPRMC,181238.600,A,3546.0526,N,07839.7055,W,0.01,25.85,030819,,,A*44
$GPGGA,181238.800,3546.0526,N,07839.7054,W,1,06,1.23,105.8,M,-33.0,M,,*56
$GPRMC,181238.800,A,3546.0526,N,07839.7054,W,0.04,132.54,030819,,,A*75
$GPGGA,181239.000,3546.0526,N,07839.7054,W,1,06,1.24,105.7,M,-33.0,M,,*57
$GPRMC,181239.000,A,3546.0526,N,07839.7054,W,0.04,345.75,030819,,,A*7D
$GPGGA,181239.200,3546.0526,N,07839.7054,W,1,06,1.26,105.6,M,-33.0,M,,*56
$GPRMC,181239.200,A,3546.0526,N,07839.7054,W,0.03,302.41,030819,,,A*7C
$GPGGA,181239.400,3546.0526,N,07839.7054,W,1,06,1.23,105.5,M,-33.0,M,,*56
$GPRMC,181239.400,A,3546.0526,N,07839.7054,W,0.02,237.23,030819,,,A*78
$GPGGA,181239.600,3546.0526,N,07839.7054,W,1,06,1.24,105.5,M,-33.0,M,,*53
$GPRMC,181239.600,A,3546.0526,N,07839.7054,W,0.03,56.53,030819,,,A*49
$GPGGA,181239.800,3546.0526,N,07839.7054,W,1,06,1.24,105.4,M,-33.0,M,,*5C
$GPRMC,181239.800,A,3546.0526,N,07839.7054,W,0.01,185.92,030819,,,A*77
$GPGGA,181240.000,3546.0526,N,07839.7054,W,1,06,1.23,105.4,M,-33.0,M,,*5D
$GPRMC,181240.000,A,3546.0526,N,07839.7054,W,0.01,249.25,030819,,,A*7E
$GPGGA,181240.200,3546.0526,N,07839.7053,W,1,06,1.24,105.4,M,-33.0,M,,*5F
$GPRMC,181240.200,A,3546.0526,N,07839.7053,W,0.03,315.96,030819,,,A*79
$GPGGA,181240.400,3546.0526,N,07839.7053,W,1,06,1.23,105.3,M,-33.0,M,,*59
$GPRMC,181240.400,A,3546.0526,N,07839.7053,W,0.02,110.73,030819,,,A*72
$GPGGA,181240.600,3546.0526,N,07839.7053,W,1,06,1.24,105.3,M,-33.0,M,,*5C
$GPRMC,181240.600,A,3546.0526,N,07839.7053,W,0.04,152.37,030819,,,A*70
$GPGGA,181240.800,3546.0526,N,07839.7053,W,1,06,1.23,105.1,M,-33.0,M,,*57
$GPRMC,181240.800,A,3546.0526,N,07839.7053,W,0.01,134.35,030819,,,A*79
$GPGGA,181241.000,3546.0527,N,07839.7053,W,1,06,1.23,105.1,M,-33.0,M,,*5F
$GPRMC,181241.000,A,3546.0527,N,07839.7053,W,0.06,189.97,030819,,,A*78
$GPGGA,181241.200,3546.0527,N,07839.7053,W,1,06,1.23,105.1,M,-33.0,M,,*5D
$GPRMC,181241.200,A,3546.0527,N,07839.7053,W,0.04,334.18,030819,,,A*7B
$GPGGA,181241.400,3546.0527,N,07839.7052,W,1,06,1.23,105.1,M,-33.0,M,,*5A
$GPRMC,181241.400,A,3546.0527,N,07839.7052,W,0.04,285.45,030819,,,A*7F
$GPGGA,181241.600,3546.0527,N,07839.7052,W,1,06,1.23,105.0,M,-33.0,M,,*59
$GPRMC,181241.600,A,3546.0527,N,07839.7052,W,0.04,275.68,030819,,,A*7D
$GPGGA,181241.800,3546.0527,N,07839.7052,W,1,06,1.24,105.0,M,-33.0,M,,*50
$GPRMC,181241.800,A,3546.0527,N,07839.7052,W,0.04,345.83,030819,,,A*74
$GPGGA,181242.000,3546.0527,N,07839.7052,W,1,06,1.27,105.0,M,-33.0,M,,*58
$GPRMC,181242.000,A,3546.0527,N,07839.7052,W,0.04,269.13,030819,,,A*79
$GPGGA,181242.200,3546.0527,N,07839.7052,W,1,06,1.24,105.0,M,-33.0,M,,*59
$GPRMC,181242.200,A,3546.0527,N,07839.7052,W,0.05,275.43,030819,,,A*72
$GPGGA,181242.400,3546.0527,N,07839.7052,W,1,06,1.23,105.0,M,-33.0,M,,*58
$GPRMC,181242.400,A,3546.0527,N,07839.7052,W,0.05,320.79,030819,,,A*7C
$GPGGA,181242.600,3546.0527,N,07839.7052,W,1,06,1.23,104.9,M,-33.0,M,,*52
$GPRMC,181242.600,A,3546.0527,N,07839.7052,W,0.03,289.14,030819,,,A*71
$GPGGA,181242.800,3546.0528,N,07839.7052,W,1,06,1.23,104.9,M,-33.0,M,,*53
$GPRMC,181242.800,A,3546.0528,N,07839.7052,W,0.02,328.68,030819,,,A*70
$GPGGA,181243.000,3546.0528,N,07839.7051,W,1,06,1.23,104.9,M,-33.0,M,,*59
$GPRMC,181243.000,A,3546.0528,N,07839.7051,W,0.02,333.43,030819,,,A*79
$GPGGA,181243.200,3546.0528,N,07839.7051,W,1,06,1.24,104.8,M,-33.0,M,,*5D
$GPRMC,181243.200,A,3546.0528,N,07839.7051,W,0.04,322.34,030819,,,A*7D
$GPGGA,181243.400,3546.0528,N,07839.7051,W,1,06,1.24,104.8,M,-33.0,M,,*5B
$GPRMC,181243.400,A,3546.0528,N,07839.7051,W,0.05,276.36,030819,,,A*78
$GPGGA,181243.600,3546.0529,N,07839.7051,W,1,06,1.23,104.7,M,-33.0,M,,*50
$GPRMC,181243.600,A,3546.0529,N,07839.7051,W,0.07,352.93,030819,,,A*71
$GPGGA,181243.800,3546.0529,N,07839.7051,W,1,06,1.26,104.8,M,-33.0,M,,*54
$GPRMC,181243.800,A,3546.0529,N,07839.7051,W,0.02,290.98,030819,,,A*7E
$GPGGA,181244.000,3546.0529,N,07839.7051,W,1,06,1.24,104.8,M,-33.0,M,,*59
$GPRMC,181244.000,A,3546.0529,N,07839.7051,W,0.06,340.04,030819,,,A*7C
$GPGGA,181244.200,3546.0529,N,07839.7051,W,1,06,1.24,104.8,M,-33.0,M,,*5B
$GPRMC,181244.200,A,3546.0529,N,07839.7051,W,0.04,357.79,030819,,,A*70
$GPGGA,181244.400,3546.0529,N,07839.7051,W,1,06,1.26,104.7,M,-33.0,M,,*50
$GPRMC,181244.400,A,3546.0529,N,07839.7051,W,0.02,105.66,030819,,,A*7B
$GPGGA,181244.600,3546.0529,N,07839.7051,W,1,06,1.24,104.7,M,-33.0,M,,*50
$GPRMC,181244.600,A,3546.0529,N,07839.7051,W,0.02,313.53,030819,,,A*7A
$GPGGA,181244.800,3546.0530,N,07839.7051,W,1,06,1.24,104.7,M,-33.0,M,,*56
$GPRMC,181244.800,A,3546.0530,N,07839.7051,W,0.02,34.86,030819,,,A*42
$GPGGA,181245.000,3546.0530,N,07839.7052,W,1,06,1.24,104.7,M,-33.0,M,,*5C
$GPRMC,181245.000,A,3546.0530,N,07839.7052,W,0.03,76.49,030819,,,A*4C
$GPGGA,181245.200,3546.0530,N,07839.7052,W,1,06,1.24,104.6,M,-33.0,M,,*5F
$GPRMC,181245.200,A,3546.0530,N,07839.7052,W,0.02,217.62,030819,,,A*73
$GPGGA,181245.400,3546.0530,N,07839.7052,W,1,06,1.24,104.5,M,-33.0,M,,*5A
$GPRMC,181245.400,A,3546.0530,N,07839.7052,W,0.06,166.67,030819,,,A*71
$GPGGA,181245.600,3546.0530,N,07839.7052,W,1,06,1.24,104.5,M,-33.0,M,,*58
$GPRMC,181245.600,A,3546.0530,N,07839.7052,W,0.01,245.64,030819,,,A*75
$GPGGA,181245.800,3546.0530,N,07839.7052,W,1,06,1.24,104.5,M,-33.0,M,,*56
$GPRMC,181245.800,A,3546.0530,N,07839.7052,W,0.04,44.70,030819,,,A*48
$GPGGA,181246.000,3546.0531,N,07839.7052,W,1,06,1.24,104.4,M,-33.0,M,,*5D
$GPRMC,181246.000,A,3546.0531,N,07839.7052,W,0.02,33.87,030819,,,A*4C
$GPGGA,181246.200,3546.0531,N,07839.7052,W,1,06,1.24,104.4,M,-33.0,M,,*5F
$GPRMC,181246.200,A,3546.0531,N,07839.7052,W,0.01,200.03,030819,,,A*73
$GPGGA,181246.400,3546.0531,N,07839.7052,W,1,06,1.24,104.4,M,-33.0,M,,*59
$GPRMC,181246.400,A,3546.0531,N,07839.7052,W,0.05,188.56,030819,,,A*72
$GPGGA,181246.600,3546.0531,N,07839.7052,W,1,06,1.24,104.4,M,-33.0,M,,*5B
$GPRMC,181246.600,A,3546.0531,N,07839.7052,W,0.02,75.76,030819,,,A*46
$GPGGA,181246.800,3546.0531,N,07839.7052,W,1,06,1.24,104.3,M,-33.0,M,,*52
$GPRMC,181246.800,A,3546.0531,N,07839.7052,W,0.02,6.75,030819,,,A*7F
$GPGGA,181247.000,3546.0531,N,07839.7052,W,1,06,1.26,104.3,M,-33.0,M,,*59
$GPRMC,181247.000,A,3546.0531,N,07839.7052,W,0.01,304.71,030819,,,A*70
$GPGGA,181247.200,3546.0531,N,07839.7053,W,1,06,1.24,104.3,M,-33.0,M,,*58
$GPRMC,181247.200,A,3546.0531,N,07839.7053,W,0.03,166.51,030819,,,A*75
$GPGGA,181247.400,3546.0532,N,07839.7053,W,1,06,1.24,104.2,M,-33.0,M,,*5C
$GPRMC,181247.600,A,3546.0532,N,07839.7053,W,0.02,289.50,030819,,,A*70
$GPGGA,181247.800,3546.0532,N,07839.7053,W,1,06,1.24,104.1,M,-33.0,M,,*53
$GPRMC,181247.800,A,3546.0532,N,07839.7053,W,0.06,66.81,030819,,,A*45
$GPGGA,181248.000,3546.0532,N,07839.7053,W,1,06,1.24,104.0,M,-33.0,M,,*55
$GPRMC,181248.000,A,3546.0532,N,07839.7053,W,0.03,211.10,030819,,,A*7D
$GPGGA,181248.200,3546.0532,N,07839.7053,W,1,06,1.24,104.0,M,-33.0,M,,*57
$GPRMC,181248.200,A,3546.0532,N,07839.7053,W,0.02,181.11,030819,,,A*75
$GPGGA,181248.400,3546.0532,N,07839.7053,W,1,06,1.24,104.0,M,-33.0,M,,*51
$GPRMC,181248.400,A,3546.0532,N,07839.7053,W,0.02,7.88,030819,,,A*7C
$GPGGA,181248.600,3546.0532,N,07839.7054,W,1,06,1.26,103.9,M,-33.0,M,,*58
$GPRMC,181248.600,A,3546.0532,N,07839.7054,W,0.04,95.37,030819,,,A*40
$GPGGA,181248.800,3546.0532,N,07839.7054,W,1,06,1.24,103.9,M,-33.0,M,,*54
$GPRMC,181248.800,A,3546.0532,N,07839.7054,W,0.03,127.23,030819,,,A*74
$GPGGA,181249.000,3546.0532,N,07839.7054,W,1,06,1.24,103.8,M,-33.0,M,,*5C
$GPRMC,181249.000,A,3546.0532,N,07839.7054,W,0.02,244.60,030819,,,A*7D
$GPGGA,181249.200,3546.0532,N,07839.7054,W,1,06,1.24,103.8,M,-33.0,M,,*5E
$GPRMC,181249.200,A,3546.0532,N,07839.7054,W,0.01,270.63,030819,,,A*78
$GPGGA,181249.400,3546.0532,N,07839.7054,W,1,06,1.24,103.7,M,-33.0,M,,*57
$GPRMC,181249.400,A,3546.0532,N,07839.7054,W,0.02,103.64,030819,,,A*7D
$GPGGA,181249.600,3546.0532,N,07839.7054,W,1,06,1.24,103.7,M,-33.0,M,,*55
$GPRMC,181249.600,A,3546.0532,N,07839.7054,W,0.04,118.95,030819,,,A*7D
$GPGGA,181249.800,3546.0532,N,07839.7054,W,1,06,1.24,103.7,M,-33.0,M,,*5B
$GPRMC,181249.800,A,3546.0532,N,07839.7054,W,0.03,133.13,030819,,,A*73
$GPGGA,181250.000,3546.0532,N,07839.7054,W,1,06,1.24,103.7,M,-33.0,M,,*5B
$GPRMC,181250.000,A,3546.0532,N,07839.7054,W,0.01,255.36,030819,,,A*75
$GPGGA,181250.200,3546.0532,N,07839.7055,W,1,06,1.24,103.7,M,-33.0,M,,*58
$GPRMC,181250.200,A,3546.0532,N,07839.7055,W,0.03,306.81,030819,,,A*7F
$GPGGA,181250.400,3546.0532,N,07839.7055,W,1,06,1.24,103.7,M,-33.0,M,,*5E
$GPRMC,181250.400,A,3546.0532,N,07839.7055,W,0.05,93.55,030819,,,A*49
$GPGGA,181250.600,3546.0532,N,07839.7055,W,1,06,1.24,103.7,M,-33.0,M,,*5C
$GPRMC,181250.600,A,3546.0532,N,07839.7055,W,0.04,232.32,030819,,,A*72
$GPGGA,181250.800,3546.0532,N,07839.7055,W,1,06,1.24,103.7,M,-33.0,M,,*52
$GPRMC,181250.800,A,3546.0532,N,07839.7055,W,0.05,136.34,030819,,,A*7C
$GPGGA,181251.000,3546.0533,N,07839.7055,W,1,06,1.24,103.7,M,-33.0,M,,*5A
$GPRMC,181251.000,A,3546.0533,N,07839.7055,W,0.03,332.01,030819,,,A*72
$GPGGA,181251.200,3546.0533,N,07839.7055,W,1,06,1.24,103.7,M,-33.0,M,,*58
$GPRMC,181251.200,A,3546.0533,N,07839.7055,W,0.02,266.54,030819,,,A*71
$GPGGA,181251.400,3546.0533,N,07839.7055,W,1,06,1.24,103.7,M,-33.0,M,,*5E
$GPRMC,181251.400,A,3546.0533,N,07839.7055,W,0.01,184.94,030819,,,A*77
$GPGGA,181251.600,3546.0533,N,07839.7055,W,1,06,1.24,103.7,M,-33.0,M,,*5C
$GPRMC,181251.600,A,3546.0533,N,07839.7055,W,0.01,36.10,030819,,,A*41
$GPGGA,181251.800,3546.0533,N,07839.7055,W,1,06,1.24,103.6,M,-33.0,M,,*53
$GPRMC,181251.800,A,3546.0533,N,07839.7055,W,0.03,79.98,030819,,,A*46
$GPGGA,181252.000,3546.0533,N,07839.7055,W,1,06,1.24,103.6,M,-33.0,M,,*58
$GPRMC,181252.000,A,3546.0533,N,07839.7055,W,0.03,342.66,030819,,,A*77
$GPGGA,181252.200,3546.0533,N,07839.7055,W,1,06,1.24,103.6,M,-33.0,M,,*5A
$GPRMC,181252.200,A,3546.0533,N,07839.7055,W,0.01,351.43,030819,,,A*72
$GPGGA,181252.400,3546.0533,N,07839.7055,W,1,06,1.26,103.6,M,-33.0,M,,*5E
$GPRMC,181252.400,A,3546.0533,N,07839.7055,W,0.01,130.56,030819,,,A*75
$GPGGA,181252.600,3546.0534,N,07839.7055,W,1,06,1.24,103.6,M,-33.0,M,,*59
$GPRMC,181252.600,A,3546.0534,N,07839.7055,W,0.01,318.73,030819,,,A*7F
$GPGGA,181252.800,3546.0534,N,07839.7055,W,1,06,1.24,103.6,M,-33.0,M,,*57
$GPRMC,181252.800,A,3546.0534,N,07839.7055,W,0.04,184.22,030819,,,A*77
$GPGGA,181253.000,3546.0534,N,07839.7055,W,1,06,1.24,103.6,M,-33.0,M,,*5E
$GPRMC,181253.000,A,3546.0534,N,07839.7055,W,0.04,161.71,030819,,,A*73
$GPGGA,181253.200,3546.0534,N,07839.7055,W,1,06,1.24,103.6,M,-33.0,M,,*5C
$GPRMC,181253.200,A,3546.0534,N,07839.7055,W,0.01,208.68,030819,,,A*70
$GPGGA,181253.600,3546.0534,N,07839.7055,W,1,06,1.24,103.7,M,-33.0,M,,*59
$GPRMC,181253.600,A,3546.0534,N,07839.7055,W,0.02,36.98,030819,,,A*47
$GPGGA,181253.800,3546.0534,N,07839.7055,W,1,06,1.24,103.7,M,-33.0,M,,*57
$GPRMC,181253.800,A,3546.0534,N,07839.7055,W,0.01,287.53,030819,,,A*75
$GPGGA,181254.000,3546.0534,N,07839.7055,W,1,06,1.24,103.7,M,-33.0,M,,*58
$GPRMC,181254.000,A,3546.0534,N,07839.7055,W,0.01,292.82,030819,,,A*72
$GPGGA,181254.200,3546.0534,N,07839.7055,W,1,06,1.24,103.7,M,-33.0,M,,*5A
$GPRMC,181254.200,A,3546.0534,N,07839.7055,W,0.02,130.67,030819,,,A*73
$GPGGA,181254.400,3546.0535,N,07839.7055,W,1,06,1.24,103.8,M,-33.0,M,,*52
$GPRMC,181254.400,A,3546.0535,N,07839.7055,W,0.02,61.04,030819,,,A*44
$GPGGA,181254.600,3546.0535,N,07839.7055,W,1,06,1.24,103.8,M,-33.0,M,,*50
$GPRMC,181254.600,A,3546.0535,N,07839.7055,W,0.04,125.82,030819,,,A*7F
$GPGGA,181254.800,3546.0535,N,07839.7055,W,1,06,1.24,103.8,M,-33.0,M,,*5E
$GPRMC,181254.800,A,3546.0535,N,07839.7055,W,0.04,172.80,030819,,,A*71
$GPGGA,181255.000,3546.0535,N,07839.7055,W,1,06,1.24,103.9,M,-33.0,M,,*56
$GPRMC,181255.000,A,3546.0535,N,07839.7055,W,0.04,323.23,030819,,,A*77
$GPGGA,181255.200,3546.0535,N,07839.7055,W,1,06,1.24,103.9,M,-33.0,M,,*54
$GPRMC,181255.200,A,3546.0535,N,07839.7055,W,0.02,84.71,030819,,,A*4A
$GPGGA,181255.400,3546.0535,N,07839.7055,W,1,06,1.24,104.0,M,-33.0,M,,*5C
$GPRMC,181255.400,A,3546.0535,N,07839.7055,W,0.02,296.84,030819,,,A*77
$GPGGA,181255.600,3546.0535,N,07839.7054,W,1,06,1.24,104.1,M,-33.0,M,,*5E
$GPRMC,181255.600,A,3546.0535,N,07839.7054,W,0.04,351.24,030819,,,A*72
$GPGGA,181255.800,3546.0535,N,07839.7054,W,1,06,1.27,104.1,M,-33.0,M,,*53
$GPRMC,181255.800,A,3546.0535,N,07839.7054,W,0.03,168.68,030819,,,A*7B
$GPGGA,181256.000,3546.0535,N,07839.7054,W,1,06,1.24,104.2,M,-33.0,M,,*58
$GPRMC,181256.000,A,3546.0535,N,07839.7054,W,0.01,217.98,030819,,,A*76
$GPGGA,181256.200,3546.0535,N,07839.7054,W,1,06,1.24,104.2,M,-33.0,M,,*5A
$GPRMC,181256.200,A,3546.0535,N,07839.7054,W,0.03,98.96,030819,,,A*4D
$GPGGA,181256.400,3546.0535,N,07839.7054,W,1,06,1.24,104.3,M,-33.0,M,,*5D
$GPRMC,181256.400,A,3546.0535,N,07839.7054,W,0.04,175.33,030819,,,A*71
$GPGGA,181256.600,3546.0535,N,07839.7054,W,1,06,1.24,104.4,M,-33.0,M,,*58
$GPRMC,181256.600,A,3546.0535,N,07839.7054,W,0.02,1.87,030819,,,A*78
$GPGGA,181256.800,3546.0535,N,07839.7054,W,1,06,1.27,104.5,M,-33.0,M,,*54
$GPRMC,181256.800,A,3546.0535,N,07839.7054,W,0.01,148.84,030819,,,A*7A
$GPGGA,181257.000,3546.0535,N,07839.7054,W,1,06,1.24,104.5,M,-33.0,M,,*5E
$GPRMC,181257.000,A,3546.0535,N,07839.7054,W,0.01,177.44,030819,,,A*73
$GPGGA,181257.200,3546.0535,N,07839.7054,W,1,06,1.24,104.6,M,-33.0,M,,*5F
$GPRMC,181257.200,A,3546.0535,N,07839.7054,W,0.01,241.83,030819,,,A*7C
$GPGGA,181257.400,3546.0535,N,07839.7055,W,1,06,1.24,104.6,M,-33.0,M,,*58
$GPRMC,181257.400,A,3546.0535,N,07839.7055,W,0.04,292.68,030819,,,A*75
$GPGGA,181257.600,3546.0535,N,07839.7055,W,1,06,1.24,104.7,M,-33.0,M,,*5B
$GPRMC,181257.600,A,3546.0535,N,07839.7055,W,0.03,6.22,030819,,,A*71
$GPGGA,181257.800,3546.0535,N,07839.7055,W,1,06,1.27,104.7,M,-33.0,M,,*56
$GPRMC,181257.800,A,3546.0535,N,07839.7055,W,0.02,68.17,030819,,,A*40
$GPGGA,181258.000,3546.0535,N,07839.7055,W,1,06,1.24,104.7,M,-33.0,M,,*52
$GPRMC,181258.000,A,3546.0535,N,07839.7055,W,0.02,204.98,030819,,,A*78
$GPGGA,181258.200,3546.0535,N,07839.7055,W,1,06,1.24,104.6,M,-33.0,M,,*51
$GPRMC,181258.200,A,3546.0535,N,07839.7055,W,0.04,172.64,030819,,,A*7D
$GPGGA,181258.400,3546.0535,N,07839.7055,W,1,06,1.24,104.6,M,-33.0,M,,*57
$GPRMC,181258.400,A,3546.0535,N,07839.7055,W,0.02,274.00,030819,,,A*7A
$GPGGA,181258.600,3546.0535,N,07839.7055,W,1,06,1.24,104.7,M,-33.0,M,,*54
$GPRMC,181258.600,A,3546.0535,N,07839.7055,W,0.02,288.88,030819,,,A*7B
$GPRMC,181258.800,A,3546.0534,N,07839.7055,W,0.03,211.92,030819,,,A*7E
$GPGGA,181259.200,3546.0534,N,07839.7055,W,1,06,1.24,104.7,M,-33.0,M,,*50
$GPRMC,181259.200,A,3546.0534,N,07839.7055,W,0.02,280.69,030819,,,A*78
$GPGGA,181259.400,3546.0534,N,07839.7055,W,1,06,1.24,104.7,M,-33.0,M,,*56
$GPRMC,181259.400,A,3546.0534,N,07839.7055,W,0.02,193.21,030819,,,A*73
$GPGGA,181259.600,3546.0534,N,07839.7055,W,1,06,1.24,104.7,M,-33.0,M,,*54
$GPRMC,181259.600,A,3546.0534,N,07839.7055,W,0.03,273.70,030819,,,A*79
$GPGGA,181259.800,3546.0534,N,07839.7055,W,1,06,1.24,104.7,M,-33.0,M,,*5A
$GPRMC,181259.800,A,3546.0534,N,07839.7055,W,0.03,0.56,030819,,,A*75
$GPGGA,181300.000,3546.0534,N,07839.7055,W,1,06,1.27,104.7,M,-33.0,M,,*5C
$GPRMC,181300.000,A,3546.0534,N,07839.7055,W,0.02,211.13,030819,,,A*72
$GPGGA,181300.200,3546.0534,N,07839.7055,W,1,06,1.24,104.8,M,-33.0,M,,*52
$GPRMC,181300.200,A,3546.0534,N,07839.7055,W,0.03,305.92,030819,,,A*7C
$GPGGA,181300.400,3546.0534,N,07839.7055,W,1,06,1.24,104.8,M,-33.0,M,,*54
$GPRMC,181300.400,A,3546.0534,N,07839.7055,W,0.04,7.05,030819,,,A*72
$GPGGA,181300.600,3546.0534,N,07839.7055,W,1,06,1.27,104.8,M,-33.0,M,,*55
$GPRMC,181300.600,A,3546.0534,N,07839.7055,W,0.04,318.71,030819,,,A*7E
$GPGGA,181300.800,3546.0534,N,07839.7055,W,1,06,1.24,104.8,M,-33.0,M,,*58
$GPRMC,181300.800,A,3546.0534,N,07839.7055,W,0.03,266.67,030819,,,A*78
$GPGGA,181301.000,3546.0534,N,07839.7055,W,1,06,1.24,104.8,M,-33.0,M,,*51
$GPRMC,181301.000,A,3546.0534,N,07839.7055,W,0.05,314.63,030819,,,A*77
$GPGGA,181301.200,3546.0534,N,07839.7055,W,1,06,1.24,104.8,M,-33.0,M,,*53
$GPRMC,181301.200,A,3546.0534,N,07839.7055,W,0.03,326.93,030819,,,A*7D
$GPGGA,181301.400,3546.0534,N,07839.7055,W,1,06,1.24,104.9,M,-33.0,M,,*54
$GPRMC,181301.400,A,3546.0534,N,07839.7055,W,0.02,86.30,030819,,,A*4A
$GPGGA,181301.600,3546.0534,N,07839.7055,W,1,06,1.24,104.9,M,-33.0,M,,*56
$GPRMC,181301.600,A,3546.0534,N,07839.7055,W,0.02,238.17,030819,,,A*7A
$GPGGA,181301.800,3546.0534,N,07839.7055,W,1,06,1.24,104.9,M,-33.0,M,,*58
$GPRMC,181301.800,A,3546.0534,N,07839.7055,W,0.04,289.39,030819,,,A*74
$GPGGA,181302.000,3546.0534,N,07839.7055,W,1,06,1.24,105.0,M,-33.0,M,,*5B
$GPRMC,181302.000,A,3546.0534,N,07839.7055,W,0.03,311.14,030819,,,A*77
$GPGGA,181302.200,3546.0534,N,07839.7055,W,1,06,1.24,105.0,M,-33.0,M,,*59
$GPRMC,181302.200,A,3546.0534,N,07839.7055,W,0.03,328.68,030819,,,A*74
$GPGGA,181302.400,3546.0534,N,07839.7055,W,1,06,1.24,105.0,M,-33.0,M,,*5F
$GPRMC,181302.400,A,3546.0534,N,07839.7055,W,0.03,320.45,030819,,,A*75
$GPGGA,181302.600,3546.0534,N,07839.7055,W,1,06,1.24,105.1,M,-33.0,M,,*5C
$GPRMC,181302.600,A,3546.0534,N,07839.7055,W,0.02,311.83,030819,,,A*7E
$GPGGA,181302.800,3546.0534,N,07839.7055,W,1,06,1.24,105.1,M,-33.0,M,,*52
$GPRMC,181302.800,A,3546.0534,N,07839.7055,W,0.03,351.07,030819,,,A*79
$GPGGA,181303.000,3546.0534,N,07839.7055,W,1,06,1.27,105.1,M,-33.0,M,,*58
$GPRMC,181303.000,A,3546.0534,N,07839.7055,W,0.03,238.91,030819,,,A*71
$GPGGA,181303.200,3546.0534,N,07839.7055,W,1,06,1.24,105.2,M,-33.0,M,,*5A
$GPRMC,181303.200,A,3546.0534,N,07839.7055,W,0.01,337.23,030819,,,A*76
$GPGGA,181303.400,3546.0534,N,07839.7055,W,1,06,1.24,105.2,M,-33.0,M,,*5C
$GPRMC,181303.400,A,3546.0534,N,07839.7055,W,0.06,162.94,030819,,,A*79
$GPGGA,181303.600,3546.0534,N,07839.7055,W,1,06,1.24,105.2,M,-33.0,M,,*5E
$GPRMC,181303.600,A,3546.0534,N,07839.7055,W,0.02,301.04,030819,,,A*71
$GPGGA,181303.800,3546.0534,N,07839.7055,W,1,06,1.24,105.2,M,-33.0,M,,*50
$GPRMC,181303.800,A,3546.0534,N,07839.7055,W,0.03,26.47,030819,,,A*4F
$GPGGA,181304.000,3546.0534,N,07839.7055,W,1,06,1.24,105.2,M,-33.0,M,,*5F
$GPRMC,181304.000,A,3546.0534,N,07839.7055,W,0.01,74.91,030819,,,A*4E
$GPGGA,181304.200,3546.0534,N,07839.7055,W,1,06,1.24,105.2,M,-33.0,M,,*5D
$GPRMC,181304.200,A,3546.0534,N,07839.7055,W,0.04,320.45,030819,,,A*72
$GPRMC,181304.400,A,3546.0534,N,07839.7055,W,0.02,53.07,030819,,,A*43
$GPRMC,181304.600,A,3546.0534,N,07839.7055,W,0.02,214.75,030819,,,A*75
$GPGGA,181304.800,3546.0534,N,07839.7055,W,1,06,1.24,105.2,M,-33.0,M,,*57
$GPRMC,181304.800,A,3546.0534,N,07839.7055,W,0.04,264.97,030819,,,A*76
$GPGGA,181305.000,3546.0534,N,07839.7055,W,1,06,1.24,105.2,M,-33.0,M,,*5E
$GPRMC,181305.000,A,3546.0534,N,07839.7055,W,0.02,318.20,030819,,,A*7F
$GPGGA,181305.200,3546.0534,N,07839.7055,W,1,06,1.24,105.2,M,-33.0,M,,*5C
$GPRMC,181305.200,A,3546.0534,N,07839.7055,W,0.05,8.42,030819,,,A*7C
$GPGGA,181305.400,3546.0534,N,07839.7055,W,1,06,1.27,105.2,M,-33.0,M,,*59
$GPRMC,181305.400,A,3546.0534,N,07839.7055,W,0.01,209.46,030819,,,A*79
$GPGGA,181305.600,3546.0534,N,07839.7055,W,1,06,1.24,105.2,M,-33.0,M,,*58
$GPRMC,181305.600,A,3546.0534,N,07839.7055,W,0.02,51.02,030819,,,A*47
$GPGGA,181305.800,3546.0534,N,07839.7055,W,1,06,1.24,105.2,M,-33.0,M,,*56
$GPRMC,181305.800,A,3546.0534,N,07839.7055,W,0.03,225.44,030819,,,A*7B
$GPGGA,181306.000,3546.0534,N,07839.7055,W,1,06,1.24,105.2,M,-33.0,M,,*5D
$GPRMC,181306.000,A,3546.0534,N,07839.7055,W,0.02,258.58,030819,,,A*76
$GPGGA,181306.200,3546.0534,N,07839.7055,W,1,06,1.24,105.2,M,-33.0,M,,*5F
$GPRMC,181306.200,A,3546.0534,N,07839.7055,W,0.05,160.31,030819,,,A*74
$GPGGA,181306.400,3546.0534,N,07839.7055,W,1,06,1.24,105.2,M,-33.0,M,,*59
$GPRMC,181306.400,A,3546.0534,N,07839.7055,W,0.02,323.10,030819,,,A*73
$GPGGA,181306.600,3546.0534,N,07839.7055,W,1,06,1.24,105.2,M,-33.0,M,,*5B
$GPRMC,181306.600,A,3546.0534,N,07839.7055,W,0.03,53.95,030819,,,A*49
$GPGGA,181306.800,3546.0534,N,07839.7055,W,1,06,1.24,105.2,M,-33.0,M,,*55
$GPRMC,181306.800,A,3546.0534,N,07839.7055,W,0.03,216.04,030819,,,A*7C
$GPGGA,181307.000,3546.0534,N,07839.7055,W,1,06,1.24,105.2,M,-33.0,M,,*5C
$GPRMC,181307.000,A,3546.0534,N,07839.7055,W,0.02,267.40,030819,,,A*72
$GPGGA,181307.200,3546.0534,N,07839.7055,W,1,06,1.24,105.2,M,-33.0,M,,*5E
$GPRMC,181307.200,A,3546.0534,N,07839.7055,W,0.01,35.03,030819,,,A*41
$GPGGA,181307.400,3546.0534,N,07839.7055,W,1,06,1.24,105.2,M,-33.0,M,,*58
$GPRMC,181307.400,A,3546.0534,N,07839.7055,W,0.01,235.14,030819,,,A*73
$GPGGA,181307.600,3546.0534,N,07839.7055,W,1,06,1.24,105.2,M,-33.0,M,,*5A
$GPRMC,181307.600,A,3546.0534,N,07839.7055,W,0.01,49.66,030819,,,A*4D
$GPGGA,181307.800,3546.0534,N,07839.7055,W,1,06,1.24,105.2,M,-33.0,M,,*54
$GPRMC,181307.800,A,3546.0534,N,07839.7055,W,0.03,163.53,030819,,,A*7E
$GPGGA,181308.000,3546.0534,N,07839.7055,W,1,06,1.24,105.2,M,-33.0,M,,*53
$GPRMC,181308.000,A,3546.0534,N,07839.7055,W,0.02,193.85,030819,,,A*7C
$GPGGA,181308.200,3546.0534,N,07839.7055,W,1,06,1.24,105.2,M,-33.0,M,,*51
$GPRMC,181308.200,A,3546.0534,N,07839.7055,W,0.02,302.89,030819,,,A*78
$GPGGA,181308.400,3546.0534,N,07839.7055,W,1,06,1.24,105.2,M,-33.0,M,,*57
$GPRMC,181308.400,A,3546.0534,N,07839.7055,W,0.02,97.18,030819,,,A*49
$GPGGA,181308.600,3546.0534,N,07839.7055,W,1,06,1.24,105.2,M,-33.0,M,,*55
$GPRMC,181308.600,A,3546.0534,N,07839.7055,W,0.02,64.88,030819,,,A*4E
$GPGGA,181308.800,3546.0534,N,07839.7055,W,1,06,1.24,105.2,M,-33.0,M,,*5B
$GPRMC,181308.800,A,3546.0534,N,07839.7055,W,0.03,326.23,030819,,,A*75
$GPGGA,181309.000,3546.0534,N,07839.7055,W,1,06,1.24,105.2,M,-33.0,M,,*52
$GPRMC,181309.000,A,3546.0534,N,07839.7055,W,0.04,304.43,030819,,,A*7D
$GPGGA,181309.200,3546.0534,N,07839.7055,W,1,06,1.24,105.2,M,-33.0,M,,*50
$GPRMC,181309.200,A,3546.0534,N,07839.7055,W,0.01,239.15,030819,,,A*76
$GPGGA,181309.400,3546.0534,N,07839.7055,W,1,06,1.24,105.2,M,-33.0,M,,*56
$GPRMC,181309.400,A,3546.0534,N,07839.7055,W,0.00,111.43,030819,,,A*7B
$GPGGA,181309.600,3546.0534,N,07839.7055,W,1,06,1.24,105.2,M,-33.0,M,,*54
$GPRMC,181309.600,A,3546.0534,N,07839.7055,W,0.05,347.27,030819,,,A*7F
$GPGGA,181309.800,3546.0534,N,07839.7055,W,1,06,1.27,105.2,M,-33.0,M,,*59
$GPRMC,181309.800,A,3546.0534,N,07839.7055,W,0.00,321.45,030819,,,A*70
$GPGGA,181310.000,3546.0534,N,07839.7055,W,1,06,1.24,105.2,M,-33.0,M,,*5A
$GPGGA,181310.200,3546.0534,N,07839.7055,W,1,06,1.24,105.2,M,-33.0,M,,*58
$GPGGA,181310.400,3546.0534,N,07839.7055,W,1,06,1.24,105.2,M,-33.0,M,,*5E
$GPRMC,181310.400,A,3546.0534,N,07839.7055,W,0.02,304.49,030819,,,A*7D
$GPGGA,181310.600,3546.0534,N,07839.7055,W,1,06,1.24,105.2,M,-33.0,M,,*5C
$GPRMC,181310.600,A,3546.0534,N,07839.7055,W,0.01,215.42,030819,,,A*76
$GPGGA,181310.800,3546.0534,N,07839.7055,W,1,06,1.24,105.2,M,-33.0,M,,*52
$GPRMC,181310.800,A,3546.0534,N,07839.7055,W,0.02,289.79,030819,,,A*76
$GPGGA,181311.000,3546.0534,N,07839.7055,W,1,06,1.24,105.2,M,-33.0,M,,*5B
$GPRMC,181311.000,A,3546.0534,N,07839.7055,W,0.03,316.97,030819,,,A*79
$GPGGA,181311.200,3546.0534,N,07839.7055,W,1,06,1.24,105.2,M,-33.0,M,,*59
$GPRMC,181311.200,A,3546.0534,N,07839.7055,W,0.03,148.39,030819,,,A*76
$GPGGA,181311.400,3546.0534,N,07839.7055,W,1,06,1.24,105.2,M,-33.0,M,,*5F
$GPRMC,181311.400,A,3546.0534,N,07839.7055,W,0.02,228.29,030819,,,A*75
$GPGGA,181311.600,3546.0534,N,07839.7055,W,1,06,1.24,105.2,M,-33.0,M,,*5D
$GPRMC,181311.600,A,3546.0534,N,07839.7055,W,0.01,358.18,030819,,,A*70
$GPGGA,181311.800,3546.0534,N,07839.7055,W,1,06,1.27,105.2,M,-33.0,M,,*50
$GPRMC,181311.800,A,3546.0534,N,07839.7055,W,0.05,123.78,030819,,,A*72
$GPGGA,181312.000,3546.0534,N,07839.7055,W,1,06,1.24,105.2,M,-33.0,M,,*58
$GPRMC,181312.000,A,3546.0534,N,07839.7055,W,0.02,269.55,030819,,,A*7C
$GPGGA,181312.200,3546.0534,N,07839.7055,W,1,06,1.24,105.2,M,-33.0,M,,*5A
$GPRMC,181312.200,A,3546.0534,N,07839.7055,W,0.02,76.87,030819,,,A*4D
$GPGGA,181312.400,3546.0534,N,07839.7055,W,1,06,1.24,105.2,M,-33.0,M,,*5C
$GPRMC,181312.400,A,3546.0534,N,07839.7055,W,0.02,202.14,030819,,,A*70
$GPGGA,181312.600,3546.0534,N,07839.7055,W,1,06,1.24,105.2,M,-33.0,M,,*5E
$GPRMC,181312.600,A,3546.0534,N,07839.7055,W,0.01,24.52,030819,,,A*45
$GPGGA,181312.800,3546.0534,N,07839.7055,W,1,06,1.24,105.2,M,-33.0,M,,*50
$GPRMC,181312.800,A,3546.0534,N,07839.7055,W,0.03,209.75,030819,,,A*71
$GPGGA,181313.000,3546.0534,N,07839.7055,W,1,06,1.24,105.2,M,-33.0,M,,*59
$GPRMC,181313.000,A,3546.0534,N,07839.7055,W,0.03,108.35,030819,,,A*7E
$GPGGA,181313.200,3546.0534,N,07839.7055,W,1,06,1.24,105.2,M,-33.0,M,,*5B
$GPRMC,181313.200,A,3546.0534,N,07839.7055,W,0.02,257.84,030819,,,A*7E
$GPGGA,181313.400,3546.0534,N,07839.7055,W,1,06,1.24,105.2,M,-33.0,M,,*5D
$GPRMC,181313.400,A,3546.0534,N,07839.7055,W,0.01,176.28,030819,,,A*7D
$GPGGA,181313.600,3546.0534,N,07839.7055,W,1,06,1.24,105.2,M,-33.0,M,,*5F
$GPRMC,181313.600,A,3546.0534,N,07839.7055,W,0.03,44.20,030819,,,A*45
$GPGGA,181313.800,3546.0534,N,07839.7055,W,1,06,1.24,105.2,M,-33.0,M,,*51
$GPRMC,181313.800,A,3546.0534,N,07839.7055,W,0.01,352.34,030819,,,A*78
$GPGGA,181314.000,3546.0534,N,07839.7055,W,1,06,1.27,105.2,M,-33.0,M,,*5D
$GPRMC,181314.000,A,3546.0534,N,07839.7055,W,0.00,325.15,030819,,,A*75
$GPGGA,181314.200,3546.0534,N,07839.7055,W,1,06,1.24,105.2,M,-33.0,M,,*5C
$GPRMC,181314.200,A,3546.0534,N,07839.7055,W,0.01,18.17,030819,,,A*49
$GPGGA,181314.400,3546.0534,N,07839.7055,W,1,06,1.24,105.2,M,-33.0,M,,*5A
$GPRMC,181314.400,A,3546.0534,N,07839.7055,W,0.03,262.69,030819,,,A*7B
$GPGGA,181314.600,3546.0534,N,07839.7055,W,1,06,1.24,105.2,M,-33.0,M,,*58
$GPRMC,181314.600,A,3546.0534,N,07839.7055,W,0.04,141.59,030819,,,A*7F
$GPGGA,181314.800,3546.0534,N,07839.7055,W,1,06,1.24,105.2,M,-33.0,M,,*56
$GPRMC,181314.800,A,3546.0534,N,07839.7055,W,0.01,119.74,030819,,,A*76
$GPGGA,181315.000,3546.0534,N,07839.7055,W,1,06,1.24,105.2,M,-33.0,M,,*5F
$GPRMC,181315.000,A,3546.0534,N,07839.7055,W,0.01,169.70,030819,,,A*7C
$GPGGA,181315.200,3546.0534,N,07839.7055,W,1,06,1.24,105.2,M,-33.0,M,,*5D
$GPRMC,181315.200,A,3546.0534,N,07839.7055,W,0.02,309.31,030819,,,A*7C
$GPRMC,181315.400,A,3546.0534,N,07839.7055,W,0.00,184.52,030819,,,A*7A
$GPRMC,181315.600,A,3546.0534,N,07839.7055,W,0.04,164.04,030819,,,A*71
$GPRMC,181315.800,A,3546.0534,N,07839.7055,W,0.01,113.17,030819,,,A*78
$GPGGA,181316.000,3546.0534,N,07839.7055,W,1,06,1.27,105.2,M,-33.0,M,,*5F
$GPRMC,181316.000,A,3546.0534,N,07839.7055,W,0.02,184.29,030819,,,A*73
$GPGGA,181316.200,3546.0534,N,07839.7055,W,1,06,1.27,105.2,M,-33.0,M,,*5D
$GPRMC,181316.200,A,3546.0534,N,07839.7055,W,0.01,249.58,030819,,,A*76
$GPGGA,181316.400,3546.0534,N,07839.7055,W,1,06,1.27,105.2,M,-33.0,M,,*5B
$GPRMC,181316.400,A,3546.0534,N,07839.7055,W,0.02,23.90,030819,,,A*49
$GPGGA,181316.600,3546.0534,N,07839.7055,W,1,06,1.27,105.2,M,-33.0,M,,*59
$GPRMC,181316.600,A,3546.0534,N,07839.7055,W,0.02,178.24,030819,,,A*7B
$GPGGA,181316.800,3546.0534,N,07839.7055,W,1,06,1.27,105.2,M,-33.0,M,,*57
$GPRMC,181316.800,A,3546.0534,N,07839.7055,W,0.00,25.78,030819,,,A*47
$GPGGA,181317.000,3546.0534,N,07839.7055,W,1,06,1.27,105.2,M,-33.0,M,,*5E
$GPRMC,181317.000,A,3546.0534,N,07839.7055,W,0.01,184.45,030819,,,A*7B
$GPGGA,181317.200,3546.0534,N,07839.7055,W,1,06,1.27,105.2,M,-33.0,M,,*5C
$GPRMC,181317.200,A,3546.0534,N,07839.7055,W,0.02,351.50,030819,,,A*74
$GPGGA,181317.400,3546.0534,N,07839.7055,W,1,06,1.27,105.2,M,-33.0,M,,*5A
$GPRMC,181317.400,A,3546.0534,N,07839.7055,W,0.00,200.86,030819,,,A*7E
$GPGGA,181317.600,3546.0534,N,07839.7055,W,1,06,1.27,105.2,M,-33.0,M,,*58
$GPRMC,181317.600,A,3546.0534,N,07839.7055,W,0.00,78.15,030819,,,A*4B
$GPGGA,181317.800,3546.0534,N,07839.7055,W,1,06,1.27,105.2,M,-33.0,M,,*56
$GPRMC,181317.800,A,3546.0534,N,07839.7055,W,0.00,227.68,030819,,,A*77
$GPGGA,181318.000,3546.0534,N,07839.7055,W,1,06,1.27,105.2,M,-33.0,M,,*51
$GPRMC,181318.000,A,3546.0534,N,07839.7055,W,0.00,79.42,030819,,,A*41
$GPGGA,181318.200,3546.0534,N,07839.7055,W,1,06,1.27,105.2,M,-33.0,M,,*53
$GPRMC,181318.200,A,3546.0534,N,07839.7055,W,0.00,67.47,030819,,,A*49
$GPGGA,181318.400,3546.0534,N,07839.7055,W,1,06,1.27,105.2,M,-33.0,M,,*55
$GPRMC,181318.400,A,3546.0534,N,07839.7055,W,0.01,301.93,030819,,,A*74
$GPGGA,181318.600,3546.0534,N,07839.7055,W,1,06,1.27,105.2,M,-33.0,M,,*57
$GPRMC,181318.600,A,3546.0534,N,07839.7055,W,0.01,109.16,030819,,,A*71
$GPGGA,181318.800,3546.0534,N,07839.7055,W,1,06,1.27,105.2,M,-33.0,M,,*59
$GPRMC,181318.800,A,3546.0534,N,07839.7055,W,0.01,286.00,030819,,,A*7C
$GPGGA,181319.000,3546.0534,N,07839.7055,W,1,06,1.27,105.2,M,-33.0,M,,*50
$GPRMC,181319.000,A,3546.0534,N,07839.7055,W,0.01,251.79,030819,,,A*71
$GPGGA,181319.200,3546.0534,N,07839.7055,W,1,06,1.27,105.2,M,-33.0,M,,*52
$GPRMC,181319.200,A,3546.0534,N,07839.7055,W,0.00,336.15,030819,,,A*78
$GPGGA,181319.400,3546.0534,N,07839.7055,W,1,06,1.27,105.2,M,-33.0,M,,*54
$GPRMC,181319.400,A,3546.0534,N,07839.7055,W,0.00,199.03,030819,,,A*7E
$GPGGA,181319.600,3546.0534,N,07839.7055,W,1,06,1.27,105.2,M,-33.0,M,,*56
$GPRMC,181319.600,A,3546.0534,N,07839.7055,W,0.01,36.74,030819,,,A*49
$GPGGA,181319.800,3546.0534,N,07839.7055,W,1,06,1.27,105.2,M,-33.0,M,,*58
$GPRMC,181319.800,A,3546.0534,N,07839.7055,W,0.00,344.17,030819,,,A*75
$GPGGA,181320.000,3546.0534,N,07839.7055,W,1,06,1.27,105.2,M,-33.0,M,,*5A
$GPRMC,181320.000,A,3546.0534,N,07839.7055,W,0.01,110.16,030819,,,A*74
$GPGGA,181320.200,3546.0534,N,07839.7055,W,1,06,1.27,105.2,M,-33.0,M,,*58
$GPRMC,181320.200,A,3546.0534,N,07839.7055,W,0.00,149.63,030819,,,A*79
$GPGGA,181320.400,3546.0534,N,07839.7055,W,1,06,1.27,105.2,M,-33.0,M,,*5E
$GPRMC,181320.400,A,3546.0534,N,07839.7055,W,0.00,306.03,030819,,,A*70
$GPGGA,181320.600,3546.0534,N,07839.7055,W,1,06,1.27,105.2,M,-33.0,M,,*5C
$GPRMC,181320.600,A,3546.0534,N,07839.7055,W,0.00,115.75,030819,,,A*73
$GPGGA,181320.800,3546.0534,N,07839.7055,W,1,06,1.27,105.2,M,-33.0,M,,*52
$GPRMC,181320.800,A,3546.0534,N,07839.7055,W,0.01,217.91,030819,,,A*77
$GPRMC,181321.000,A,3546.0534,N,07839.7055,W,0.00,77.82,030819,,,A*49
$GPRMC,181321.200,A,3546.0534,N,07839.7055,W,0.01,321.35,030819,,,A*76
$GPRMC,181321.400,A,3546.0534,N,07839.7055,W,0.00,84.24,030819,,,A*4D
$GPGGA,181321.600,3546.0534,N,07839.7055,W,1,06,1.27,105.2,M,-33.0,M,,*5D
$GPRMC,181321.600,A,3546.0534,N,07839.7055,W,0.00,59.84,030819,,,A*45
$GPGGA,181321.800,3546.0534,N,07839.7055,W,1,06,1.27,105.2,M,-33.0,M,,*53
$GPRMC,181321.800,A,3546.0534,N,07839.7055,W,0.01,214.17,030819,,,A*7B
$GPGGA,181322.000,3546.0534,N,07839.7055,W,1,06,1.27,105.2,M,-33.0,M,,*58
$GPRMC,181322.000,A,3546.0534,N,07839.7055,W,0.00,0.00,030819,,,A*70
$GPGGA,181322.200,3546.0534,N,07839.7055,W,1,06,1.27,105.2,M,-33.0,M,,*5A
$GPRMC,181322.200,A,3546.0534,N,07839.7055,W,0.00,118.19,030819,,,A*72
$GPGGA,181322.400,3546.0534,N,07839.7055,W,1,06,1.27,105.2,M,-33.0,M,,*5C
$GPRMC,181322.400,A,3546.0534,N,07839.7055,W,0.00,207.69,030819,,,A*7E
$GPGGA,181322.600,3546.0534,N,07839.7055,W,1,06,1.27,105.2,M,-33.0,M,,*5E
$GPRMC,181322.600,A,3546.0534,N,07839.7055,W,0.00,69.76,030819,,,A*48
$GPGGA,181322.800,3546.0534,N,07839.7055,W,1,06,1.27,105.2,M,-33.0,M,,*50
$GPRMC,181322.800,A,3546.0534,N,07839.7055,W,0.01,10.89,030819,,,A*49
$GPGGA,181323.000,3546.0534,N,07839.7055,W,1,06,1.27,105.2,M,-33.0,M,,*59
$GPRMC,181323.000,A,3546.0534,N,07839.7055,W,0.00,222.21,030819,,,A*70
$GPGGA,181323.200,3546.0534,N,07839.7055,W,1,06,1.27,105.2,M,-33.0,M,,*5B
$GPRMC,181323.200,A,3546.0534,N,07839.7055,W,0.00,89.80,030819,,,A*4A
$GPGGA,181323.400,3546.0534,N,07839.7055,W,1,06,1.27,105.2,M,-33.0,M,,*5D
$GPRMC,181323.400,A,3546.0534,N,07839.7055,W,0.00,79.34,030819,,,A*4C
$GPGGA,181323.600,3546.0534,N,07839.7055,W,1,06,1.27,105.2,M,-33.0,M,,*5F
$GPRMC,181323.600,A,3546.0534,N,07839.7055,W,0.01,337.25,030819,,,A*76
$GPGGA,181323.800,3546.0534,N,07839.7055,W,1,06,1.27,105.2,M,-33.0,M,,*51
$GPRMC,181323.800,A,3546.0534,N,07839.7055,W,0.01,206.28,030819,,,A*76
$GPGGA,181324.000,3546.0534,N,07839.7055,W,1,06,1.27,105.2,M,-33.0,M,,*5E
$GPRMC,181324.000,A,3546.0534,N,07839.7055,W,0.01,100.60,030819,,,A*70
$GPGGA,181324.200,3546.0534,N,07839.7055,W,1,06,1.27,105.2,M,-33.0,M,,*5C
$GPRMC,181324.200,A,3546.0534,N,07839.7055,W,0.00,301.45,030819,,,A*77
$GPGGA,181324.400,3546.0534,N,07839.7055,W,1,06,1.27,105.2,M,-33.0,M,,*5A
$GPRMC,181324.400,A,3546.0534,N,07839.7055,W,0.01,354.60,030819,,,A*77
$GPGGA,181324.600,3546.0534,N,07839.7055,W,1,06,1.27,105.2,M,-33.0,M,,*58
$GPRMC,181324.600,A,3546.0534,N,07839.7055,W,0.01,156.98,030819,,,A*72
$GPGGA,181324.800,3546.0534,N,07839.7055,W,1,06,1.27,105.2,M,-33.0,M,,*56
$GPRMC,181324.800,A,3546.0534,N,07839.7055,W,0.01,172.71,030819,,,A*7D
$GPGGA,181325.000,3546.0534,N,07839.7055,W,1,06,1.27,105.2,M,-33.0,M,,*5F
$GPRMC,181325.000,A,3546.0534,N,07839.7055,W,0.01,39.83,030819,,,A*47
$GPGGA,181325.200,3546.0534,N,07839.7055,W,1,06,1.27,105.2,M,-33.0,M,,*5D
$GPRMC,181325.200,A,3546.0534,N,07839.7055,W,0.01,295.51,030819,,,A*7E
$GPGGA,181325.400,3546.0534,N,07839.7055,W,1,06,1.27,105.2,M,-33.0,M,,*5B
$GPRMC,181325.400,A,3546.0534,N,07839.7055,W,0.00,148.31,030819,,,A*7C
$GPGGA,181325.600,3546.0534,N,07839.7055,W,1,06,1.27,105.2,M,-33.0,M,,*59
$GPRMC,181325.600,A,3546.0534,N,07839.7055,W,0.01,338.18,030819,,,A*71
$GPGGA,181325.800,3546.0534,N,07839.7055,W,1,06,1.27,105.2,M,-33.0,M,,*57
$GPRMC,181325.800,A,3546.0534,N,07839.7055,W,0.01,214.82,030819,,,A*73
$GPGGA,181326.000,3546.0534,N,07839.7055,W,1,06,1.27,105.2,M,-33.0,M,,*5C
$GPRMC,181326.000,A,3546.0534,N,07839.7055,W,0.01,107.62,030819,,,A*77
$GPGGA,181326.200,3546.0534,N,07839.7055,W,1,06,1.27,105.2,M,-33.0,M,,*5E
$GPRMC,181326.200,A,3546.0534,N,07839.7055,W,0.01,122.69,030819,,,A*79
$GPGGA,181326.400,3546.0534,N,07839.7055,W,1,06,1.27,105.2,M,-33.0,M,,*58
$GPGGA,181326.600,3546.0534,N,07839.7055,W,1,06,1.27,105.2,M,-33.0,M,,*5A
$GPGGA,181326.800,3546.0534,N,07839.7055,W,1,06,1.27,105.2,M,-33.0,M,,*54
$GPRMC,181326.800,A,3546.0534,N,07839.7055,W,0.01,266.32,030819,,,A*7E
$GPGGA,181327.000,3546.0534,N,07839.7055,W,1,06,1.27,105.2,M,-33.0,M,,*5D
$GPRMC,181327.000,A,3546.0534,N,07839.7055,W,0.00,6.07,030819,,,A*74
$GPGGA,181327.200,3546.0534,N,07839.7055,W,1,06,1.27,105.2,M,-33.0,M,,*5F
$GPRMC,181327.200,A,3546.0534,N,07839.7055,W,0.01,193.92,030819,,,A*76
$GPGGA,181327.400,3546.0534,N,07839.7055,W,1,06,1.27,105.2,M,-33.0,M,,*59
$GPRMC,181327.400,A,3546.0534,N,07839.7055,W,0.00,143.50,030819,,,A*72
$GPGGA,181327.600,3546.0534,N,07839.7055,W,1,06,1.27,105.2,M,-33.0,M,,*5B
$GPRMC,181327.600,A,3546.0534,N,07839.7055,W,0.01,219.75,030819,,,A*7A
$GPGGA,181327.800,3546.0534,N,07839.7055,W,1,06,1.27,105.2,M,-33.0,M,,*55
$GPRMC,181327.800,A,3546.0534,N,07839.7055,W,0.01,110.58,030819,,,A*71
$GPGGA,181328.000,3546.0534,N,07839.7055,W,1,06,1.27,105.2,M,-33.0,M,,*52
$GPRMC,181328.000,A,3546.0534,N,07839.7055,W,0.01,279.88,030819,,,A*77
$GPGGA,181328.200,3546.0534,N,07839.7055,W,1,06,1.27,105.2,M,-33.0,M,,*50
$GPRMC,181328.200,A,3546.0534,N,07839.7055,W,0.01,113.91,030819,,,A*72
$GPGGA,181328.400,3546.0534,N,07839.7055,W,1,06,1.27,105.2,M,-33.0,M,,*56
$GPRMC,181328.400,A,3546.0534,N,07839.7055,W,0.02,39.08,030819,,,A*4E
$GPGGA,181328.600,3546.0534,N,07839.7055,W,1,06,1.27,105.2,M,-33.0,M,,*54
$GPRMC,181328.600,A,3546.0534,N,07839.7055,W,0.00,311.08,030819,,,A*77
$GPGGA,181328.800,3546.0534,N,07839.7054,W,1,06,1.27,105.2,M,-33.0,M,,*5B
$GPRMC,181328.800,A,3546.0534,N,07839.7054,W,0.01,145.47,030819,,,A*71
$GPGGA,181329.000,3546.0534,N,07839.7054,W,1,06,1.27,105.2,M,-33.0,M,,*52
$GPRMC,181329.000,A,3546.0534,N,07839.7054,W,0.01,5.48,030819,,,A*72
$GPGGA,181329.200,3546.0534,N,07839.7054,W,1,06,1.27,105.2,M,-33.0,M,,*50
$GPRMC,181329.200,A,3546.0534,N,07839.7054,W,0.00,129.51,030819,,,A*76
$GPGGA,181329.400,3546.0534,N,07839.7054,W,1,06,1.27,105.2,M,-33.0,M,,*56
$GPRMC,181329.400,A,3546.0534,N,07839.7054,W,0.04,74.35,030819,,,A*4F
$GPGGA,181329.600,3546.0534,N,07839.7054,W,1,06,1.27,105.2,M,-33.0,M,,*54
$GPRMC,181329.600,A,3546.0534,N,07839.7054,W,0.01,100.97,030819,,,A*72
$GPGGA,181329.800,3546.0534,N,07839.7054,W,1,06,1.27,105.2,M,-33.0,M,,*5A
$GPRMC,181329.800,A,3546.0534,N,07839.7054,W,0.01,330.70,030819,,,A*74
$GPGGA,181330.000,3546.0534,N,07839.7054,W,1,06,1.27,105.2,M,-33.0,M,,*5A
$GPRMC,181330.000,A,3546.0534,N,07839.7054,W,0.00,314.51,030819,,,A*70
$GPGGA,181330.200,3546.0534,N,07839.7054,W,1,06,1.27,105.2,M,-33.0,M,,*58
$GPRMC,181330.200,A,3546.0534,N,07839.7054,W,0.00,107.07,030819,,,A*71
$GPGGA,181330.400,3546.0534,N,07839.7054,W,1,06,1.27,105.2,M,-33.0,M,,*5E
$GPRMC,181330.400,A,3546.0534,N,07839.7054,W,0.01,178.00,030819,,,A*79
$GPGGA,181330.600,3546.0534,N,07839.7054,W,1,06,1.27,105.2,M,-33.0,M,,*5C
$GPRMC,181330.600,A,3546.0534,N,07839.7054,W,0.01,1.77,030819,,,A*74
$GPGGA,181330.800,3546.0534,N,07839.7054,W,1,06,1.27,105.2,M,-33.0,M,,*52
$GPRMC,181330.800,A,3546.0534,N,07839.7054,W,0.00,205.88,030819,,,A*7D
$GPGGA,181331.000,3546.0534,N,07839.7054,W,1,06,1.27,105.2,M,-33.0,M,,*5B
$GPRMC,181331.000,A,3546.0534,N,07839.7054,W,0.01,165.14,030819,,,A*75
$GPGGA,181331.200,3546.0534,N,07839.7054,W,1,06,1.27,105.2,M,-33.0,M,,*59
$GPRMC,181331.200,A,3546.0534,N,07839.7054,W,0.01,249.40,030819,,,A*7B
$GPGGA,181331.400,3546.0534,N,07839.7054,W,1,06,1.27,105.2,M,-33.0,M,,*5F
$GPRMC,181331.400,A,3546.0534,N,07839.7054,W,0.01,251.17,030819,,,A*76
$GPGGA,181331.600,3546.0534,N,07839.7054,W,1,06,1.27,105.2,M,-33.0,M,,*5D
$GPRMC,181331.600,A,3546.0534,N,07839.7054,W,0.00,81.95,030819,,,A*40
$GPGGA,181331.800,3546.0534,N,07839.7054,W,1,06,1.27,105.2,M,-33.0,M,,*53
$GPRMC,181331.800,A,3546.0534,N,07839.7054,W,0.01,71.84,030819,,,A*40
$GPRMC,181332.000,A,3546.0534,N,07839.7054,W,0.00,173.62,030819,,,A*71
$GPGGA,181332.200,3546.0534,N,07839.7054,W,1,06,1.27,105.2,M,-33.0,M,,*5A
$GPGGA,181332.400,3546.0534,N,07839.7054,W,1,06,1.27,105.2,M,-33.0,M,,*5C
$GPRMC,181332.400,A,3546.0534,N,07839.7054,W,0.00,266.01,030819,,,A*77
$GPGGA,181332.600,3546.0534,N,07839.7054,W,1,06,1.27,105.2,M,-33.0,M,,*5E
$GPRMC,181332.600,A,3546.0534,N,07839.7054,W,0.00,212.43,030819,,,A*70
$GPGGA,181332.800,3546.0534,N,07839.7054,W,1,06,1.27,105.2,M,-33.0,M,,*50
$GPRMC,181332.800,A,3546.0534,N,07839.7054,W,0.01,49.14,030819,,,A*41
$GPGGA,181333.000,3546.0534,N,07839.7054,W,1,06,1.27,105.2,M,-33.0,M,,*59
$GPRMC,181333.000,A,3546.0534,N,07839.7054,W,0.01,232.33,030819,,,A*73
$GPGGA,181333.200,3546.0534,N,07839.7054,W,1,06,1.27,105.2,M,-33.0,M,,*5B
$GPRMC,181333.200,A,3546.0534,N,07839.7054,W,0.00,126.96,030819,,,A*79
$GPGGA,181333.400,3546.0534,N,07839.7054,W,1,06,1.27,105.2,M,-33.0,M,,*5D
$GPRMC,181333.400,A,3546.0534,N,07839.7054,W,0.01,96.98,030819,,,A*4A
$GPGGA,181333.600,3546.0534,N,07839.7054,W,1,06,1.27,105.2,M,-33.0,M,,*5F
$GPRMC,181333.600,A,3546.0534,N,07839.7054,W,0.01,349.04,030819,,,A*7C
$GPGGA,181333.800,3546.0534,N,07839.7054,W,1,06,1.27,105.2,M,-33.0,M,,*51
$GPRMC,181333.800,A,3546.0534,N,07839.7054,W,0.01,201.15,030819,,,A*7F
$GPGGA,181334.000,3546.0534,N,07839.7054,W,1,06,1.27,105.2,M,-33.0,M,,*5E
$GPRMC,181334.000,A,3546.0534,N,07839.7054,W,0.01,215.59,030819,,,A*7D
$GPGGA,181334.200,3546.0534,N,07839.7054,W,1,06,1.27,105.2,M,-33.0,M,,*5C
$GPRMC,181334.200,A,3546.0534,N,07839.7054,W,0.01,55.12,030819,,,A*46
$GPGGA,181334.400,3546.0534,N,07839.7054,W,1,06,1.27,105.2,M,-33.0,M,,*5A
$GPRMC,181334.400,A,3546.0534,N,07839.7054,W,0.00,153.81,030819,,,A*7C
$GPGGA,181334.600,3546.0534,N,07839.7054,W,1,06,1.27,105.2,M,-33.0,M,,*58
$GPRMC,181334.600,A,3546.0534,N,07839.7054,W,0.00,108.21,030819,,,A*7A
$GPGGA,181334.800,3546.0534,N,07839.7054,W,1,06,1.27,105.2,M,-33.0,M,,*56
$GPRMC,181334.800,A,3546.0534,N,07839.7054,W,0.01,333.39,030819,,,A*76
$GPGGA,181335.000,3546.0534,N,07839.7054,W,1,06,1.27,105.2,M,-33.0,M,,*5F
$GPRMC,181335.000,A,3546.0534,N,07839.7054,W,0.00,111.96,030819,,,A*79
$GPGGA,181335.200,3546.0534,N,07839.7054,W,1,06,1.27,105.2,M,-33.0,M,,*5D
$GPRMC,181335.200,A,3546.0534,N,07839.7054,W,0.01,200.39,030819,,,A*7C
$GPGGA,181335.400,3546.0534,N,07839.7054,W,1,06,1.27,105.2,M,-33.0,M,,*5B
$GPRMC,181335.400,A,3546.0534,N,07839.7054,W,0.00,0.00,030819,,,A*73
$GPGGA,181335.600,3546.0534,N,07839.7054,W,1,06,1.27,105.2,M,-33.0,M,,*59
$GPRMC,181335.600,A,3546.0534,N,07839.7054,W,0.01,218.20,030819,,,A*79
$GPGGA,181335.800,3546.0534,N,07839.7054,W,1,06,1.27,105.2,M,-33.0,M,,*57
$GPRMC,181335.800,A,3546.0534,N,07839.7054,W,0.00,14.30,030819,,,A*49
$GPGGA,181336.000,3546.0534,N,07839.7054,W,1,06,1.27,105.2,M,-33.0,M,,*5C
$GPRMC,181336.000,A,3546.0534,N,07839.7054,W,0.01,63.54,030819,,,A*41
$GPGGA,181336.200,3546.0534,N,07839.7054,W,1,06,1.27,105.2,M,-33.0,M,,*5E
$GPRMC,181336.200,A,3546.0534,N,07839.7054,W,0.01,288.78,030819,,,A*7A
$GPGGA,181336.400,3546.0534,N,07839.7054,W,1,06,1.27,105.2,M,-33.0,M,,*58
$GPRMC,181336.400,A,3546.0534,N,07839.7054,W,0.01,278.82,030819,,,A*76
$GPGGA,181336.600,3546.0534,N,07839.7054,W,1,06,1.27,105.2,M,-33.0,M,,*5A
$GPRMC,181336.600,A,3546.0534,N,07839.7054,W,0.01,125.43,030819,,,A*72
$GPGGA,181336.800,3546.0534,N,07839.7054,W,1,06,1.27,105.2,M,-33.0,M,,*54
$GPRMC,181336.800,A,3546.0534,N,07839.7054,W,0.01,135.47,030819,,,A*79
$GPGGA,181337.000,3546.0534,N,07839.7054,W,1,06,1.27,105.2,M,-33.0,M,,*5D
$GPRMC,181337.000,A,3546.0534,N,07839.7054,W,0.00,80.23,030819,,,A*4C
$GPGGA,181337.200,3546.0534,N,07839.7054,W,1,06,1.27,105.2,M,-33.0,M,,*5F
$GPRMC,181337.200,A,3546.0534,N,07839.7054,W,0.01,149.44,030819,,,A*7A
$GPGGA,181337.400,3546.0534,N,07839.7054,W,1,06,1.27,105.2,M,-33.0,M,,*59
