$PGACK,103*40
$PGACK,105*46
$PMTK011,MTKGPS*08
$PMTK010,001*2E
$PMTK010,002*2D
$PGACK,33,0*6E
$GPGGA,235944.800,,,,,0,00,,,M,,M,,*7D
$GPGSA,A,1,,,,,,,,,,,,,,,*1E
$GPRMC,235944.800,V,,,,,0.00,0.00,050180,,,N*44
$GPVTG,0.0T,,.0N0.0KN3$GPGGA,235945.800,,,,,0,00,,,M,,M,,*7C
$GPGSA,A,1,,,,,,,,,,,,,,,*1E
$GPRMC,235945.800,V,,,,,0.00,0.00,050180,,,N*45
$GPVTG,0.0T,,.0N,.0KN3$GPGGA,235946.799,,,,,0,00,,,M,,M,,*70
$GPGSA,A,1,,,,,,,,,,,,,,,*1E
$GPRMC,235946.799,V,,,,,0.00,0.00,050180,,,N*49
$GPVTG,0.0,T,,.0N00,,*2
$GPGGA,235947.799,,,,,0,00,,,M,,M,,*71
$GPGSA,A,1,,,,,,,,,,,,,,,*1E
$GPRMC,235947.799,V,,,,,0.00,0.00,050180,,,N*48
$GPVTG,0.00T,,.0N00,,*2
$GPGGA,235948.799,,,,,0,00,,,M,,M,,*7E
$GPGSA,A,1,,,,,,,,,,,,,,,*1E
$GPGSV,1,1,02,19,,,24,17,,,36*76
$GPRMC,235948.799,V,,,,,.00.0008,,*7
GVG00,,M0.0N00,,*2
$GPGGA,235949.799,,,,,0,00,,,M,,M,,*7F
$GPGSA,A,1,,,,,,,,,,,,,,,*1E
$GPRMC,235949.799,V,,,,,0.00,0.00,050180,,,N*46
$GPVTG,0.0,,M00,,.0K,*2
$GPGGA,235950.799,,,,,0,00,,,M,,M,,*77
$GPGSA,A,1,,,,,,,,,,,,,,,*1E
$GPRMC,235950.799,V,,,,,0.00,0.00,050180,,,N*4E
$GPVTG,0.0,,M00,,.0KN3$GPGGA,235951.799,,,,,0,00,,,M,,M,,*76
$GPGSA,A,1,,,,,,,,,,,,,,,*1E
$GPRMC,235951.799,V,,,,,0.00,0.00,050180,,,N*4F
$GPVTG,0.0,,M00,,.0,,*2
$GPGGA,235952.800,,,,,0,00,,,M,,M,,*7A
$GPGSA,A,1,,,,,,,,,,,,,,,*1E
$GPRMC,235952.800,V,,,,,0.00,0.00,050180,,,N*43
$GPVTG,0.0,,M00,,.0KN3$GPGGA,235953.217,,,,,0,00,,,M,,M,,*77
$GPGSA,A,1,,,,,,,,,,,,,,,*1E
$GPGSV,1,1,02,19,,,19,17,,,26*79
$GPRMC,235953.217,V,,,,,.000,510,,*E
GVG00,,M00,,00,,*2
$GPGGA,235954.217,,,,,0,00,,,M,,M,,*70
$GPGSA,A,1,,,,,,,,,,,,,,,*1E
$GPRMC,235954.217,V,,,,,0.00,0.00,050180,,,N*49
$GPVTG,0.0T,,.0N0.0KN3$GPGGA,174822.096,,,,,0,00,,,M,,M,,*7D
$GPGSA,A,1,,,,,,,,,,,,,,,*1E
$GPRMC,174822.096,V,,,,,0.00,0.00,120180,,,N*42
$GPVTG,0.0T,,.0N0.0KN3$GPGGA,174823.096,,,,,0,00,,,M,,M,,*7C
$GPGSA,A,1,,,,,,,,,,,,,,,*1E
$GPRMC,174823.096,V,,,,,0.00,0.00,120180,,,N*43
$GPVTG,0.0,,M00,,.0KN32
$GPGGA,174824.096,,,,,0,00,,,M,,M,,*7B
$GPGSA,A,1,,,,,,,,,,,,,,,*1E
$GPRMC,174824.096,V,,,,,0.00,0.00,120180,,,N*44
$GPVTG,0.0,,M00,,.0,,*2
$GPGGA,174825.096,,,,,0,00,,,M,,M,,*7A
$GPGSA,A,1,,,,,,,,,,,,,,,*1E
$GPGSV,1,1,02,19,,,31,17,,,39*7D
$GPRMC,174825.096,V,,,,,0.000,210,N4$PT,00,,M00,,.0KN3$GPGGA,174826.096,,,,,0,00,,,M,,M,,*79
$GPGSA,A,1,,,,,,,,,,,,,,,*1E
$GPRMC,174826.096,V,,,,,0.00,0.00,120180,,,N*46
$GPVTG,0.0,,M00,,00,,*2
$GPGGA,174827.096,,,,,0,00,,,M,,M,,*78
$GPGSA,A,1,,,,,,,,,,,,,,,*1E
$GPRMC,174827.096,V,,,,,0.00,0.00,120180,,,N*47
$GPVTG,0.0,,M00,,.0KN3$GPGGA,174828.096,,,,,0,00,,,M,,M,,*77
$GPGSA,A,1,,,,,,,,,,,,,,,*1E
$GPRMC,174828.096,V,,,,,0.00,0.00,120180,,,N*48
$GPVTG,0.0T,,.0N,.0KN3$GPGGA,174829.096,,,,,0,00,,,M,,M,,*76
$GPGSA,A,1,,,,,,,,,,,,,,,*1E
$GPRMC,174829.096,V,,,,,0.00,0.00,120180,,,N*49
$GPVTG,0.00T,,.0N00,,*2
$GPGGA,174830.096,,,,,0,00,,,M,,M,,*7E
$GPGSA,A,1,,,,,,,,,,,,,,,*1E
$GPGSV,1,1,03,06,,,30,19,,,30,17,,,30*71
$GPRMC,174830.096,,,,.0000108,,*1
GVG00,,M0.0N00,,*2
$GPGGA,174831.096,,,,,0,00,,,M,,M,,*7F
$GPGSA,A,1,,,,,,,,,,,,,,,*1E
$GPRMC,174831.096,V,,,,,0.00,0.00,120180,,,N*40
$GPVTG,0.0,,M00,,.0KN3$GPGGA,174832.091,,,,,0,00,,,M,,M,,*7B
$GPGSA,A,1,,,,,,,,,,,,,,,*1E
$GPRMC,174832.091,V,,,,,0.00,0.00,120180,,,N*44
$GPVTG,0.0,,M00,,.0,,*2
$GPGGA,174833.091,,,,,0,00,,,M,,M,,*7A
$GPGSA,A,1,,,,,,,,,,,,,,,*1E
$GPRMC,174833.091,V,,,,,0.00,0.00,120180,,,N*45
$GPVTG,0.0,,M00,,.0KN3$GPGGA,174834.091,,,,,0,00,,,M,,M,,*7D
$GPGSA,A,1,,,,,,,,,,,,,,,*1E
$GPRMC,174834.091,V,,,,,0.00,0.00,120180,,,N*42
$GPVTG,0.0,,M,.0N00,,*2
$GPGGA,174835.091,,,,,0,00,,,M,,M,,*7C
$GPGSA,A,1,,,,,,,,,,,,,,,*1E
$GPGSV,1,1,04,06,,,32,19,,,20,17,,,35,12,,,36*76
$GPRMC,143.9,V,,00,.0108,,*3
GVG0.0T,,.0N00,,*2
$GPGGA,174836.091,,,,,0,00,,,M,,M,,*7F
$GPGSA,A,1,,,,,,,,,,,,,,,*1E
$GPRMC,174836.091,V,,,,,0.00,0.00,120180,,,N*40
$GPVTG,0.00T,,.0N00,KN3$GPGGA,174837.091,,,,,0,00,,,M,,M,,*7E
$GPGSA,A,1,,,,,,,,,,,,,,,*1E
$GPRMC,174837.091,V,,,,,0.00,0.00,120180,,,N*41
$GPVTG,0.0,,M0.0N00,,*2
$GPGGA,174838.091,,,,,0,00,,,M,,M,,*71
$GPGSA,A,1,,,,,,,,,,,,,,,*1E
$GPRMC,174838.091,V,,,,,0.00,0.00,120180,,,N*4E
$GPVTG,0.00T,,.0N00,KN3$GPGGA,174839.091,,,,,0,00,,,M,,M,,*70
$GPGSA,A,1,,,,,,,,,,,,,,,*1E
$GPRMC,174839.091,V,,,,,0.00,0.00,120180,,,N*4F
$GPVTG,0.0,,M00,,.0KN3$GPGGA,174840.091,,,,,0,00,,,M,,M,,*7E
$GPGSA,A,1,,,,,,,,,,,,,,,*1E
$GPGSV,2,1,05,06,,,40,19,,,25,17,,,29,12,,,39*76
$GPGSV,2,20,5,3*8
$PM,78001V,,00,.01010,N4$PT,.0T,,.0N0.0KN3$GPGGA,174841.091,,,,,0,00,,,M,,M,,*7F
$GPGSA,A,1,,,,,,,,,,,,,,,*1E
$GPRMC,174841.091,V,,,,,0.00,0.00,120180,,,N*40
$GPVTG,0.0T,,.0N0.0KN3$GPGGA,174842.091,,,,,0,00,,,M,,M,,*7C
$GPGSA,A,1,,,,,,,,,,,,,,,*1E
$GPRMC,174842.091,V,,,,,0.00,0.00,120180,,,N*43
$GPVTG,0.0,,M00,,.0KN*2
$GPGGA,174843.091,,,,,0,00,,,M,,M,,*7D
$GPGSA,A,1,,,,,,,,,,,,,,,*1E
$GPRMC,174843.091,V,,,,,0.00,0.00,120180,,,N*42
$GPVTG,0.0,,M00,,.0KN3$GPGGA,174844.091,,,,,0,00,,,M,,M,,*7A
$GPGSA,A,1,,,,,,,,,,,,,,,*1E
$GPRMC,174844.091,V,,,,,0.00,0.00,120180,,,N*45
$GPVTG,0.00T,,.0N00,KN3$GPGGA,174845.091,,,,,0,00,,,M,,M,,*7B
$GPGSA,A,1,,,,,,,,,,,,,,,*1E
$GPGSV,2,1,06,06,,,31,19,,,36,17,,,33,25,,,22*74
$GPGSV,2,,61,,80,,07$PM,144.9,,,,.000,210,,*4
GVG00,,M00,,.0,,*2
$GPGGA,174846.091,,,,,0,00,,,M,,M,,*78
$GPGSA,A,1,,,,,,,,,,,,,,,*1E
$GPRMC,174846.091,V,,,,,0.00,0.00,120180,,,N*47
$GPVTG,0.0T,,.0N0.0KN3$GPGGA,174847.091,,,,,0,00,,,M,,M,,*79
$GPGSA,A,1,,,,,,,,,,,,,,,*1E
$GPRMC,174847.091,V,,,,,0.00,0.00,120180,,,N*46
$GPVTG,0.0,,M00,,.0K,*2
$GPGGA,174848.091,,,,,0,00,,,M,,M,,*76
$GPGSA,A,1,,,,,,,,,,,,,,,*1E
$GPRMC,174848.091,V,,,,,0.00,0.00,120180,,,N*49
$GPVTG,0.00T,,.0N00,,*2
$GPGGA,174849.091,,,,,0,00,,,M,,M,,*77
$GPGSA,A,1,,,,,,,,,,,,,,,*1E
$GPRMC,174849.091,V,,,,,0.00,0.00,120180,,,N*48
$GPVTG,0.0T,,.0N0.0KN3$GPGGA,174850.091,,,,,0,00,,,M,,M,,*7F
$GPGSA,A,1,,,,,,,,,,,,,,,*1E
$GPGSV,2,1,06,06,,,35,19,,,37,17,,,42,25,,,25*70
$GPGSV,2,,61,,40,,87
GRC145.9,,,,.000,208,,*0
GVG00,,M00,N00,,*2
$GPGGA,174851.091,,,,,0,00,,,M,,M,,*7E
$GPGSA,A,1,,,,,,,,,,,,,,,*1E
$GPRMC,174851.091,V,,,,,0.00,0.00,120180,,,N*41
$GPVTG,0.0,,M00,,.0KN3$GPGGA,174852.091,,,,,0,00,,,M,,M,,*7D
$GPGSA,A,1,,,,,,,,,,,,,,,*1E
$GPRMC,174852.091,V,,,,,0.00,0.00,120180,,,N*42
$GPVTG,0.0,T,,.0N00,,*2
$GPGGA,174853.091,,,,,0,00,,,M,,M,,*7C
$GPGSA,A,1,,,,,,,,,,,,,,,*1E
$GPRMC,174853.091,V,,,,,0.00,0.00,120180,,,N*43
$GPVTG,0.00T,,.0N00,KN3$GPGGA,174854.091,,,,,0,00,,,M,,M,,*7B
$GPGSA,A,1,,,,,,,,,,,,,,,*1E
$GPRMC,174854.091,V,,,,,0.00,0.00,120180,,,N*44
$GPVTG,0.0,,M00,,.0KN3$GPGGA,174855.091,,,,,0,00,,,M,,M,,*7A
$GPGSA,A,1,,,,,,,,,,,,,,,*1E
$GPGSV,2,1,05,06,,,44,19,,,44,17,,,46,12,,,29*7D
$GPGSV,2,,50,,07D
GRC145.9,,,,.00.0108,,*5
GVG00,,,,.0N00,,*2
$GPGGA,174856.091,,,,,0,00,,,M,,M,,*79
$GPGSA,A,1,,,,,,,,,,,,,,,*1E
$GPRMC,174856.091,V,,,,,0.00,0.00,120180,,,N*46
$GPVTG,0.00T,,.0N00,,*2
$GPGGA,174857.091,,,,,0,00,,,M,,M,,*78
$GPGSA,A,1,,,,,,,,,,,,,,,*1E
$GPRMC,174857.091,V,,,,,0.00,0.00,120180,,,N*47
$GPVTG,0.0,,M00,,.0KN3$GPGGA,174858.091,,,,,0,00,,,M,,M,,*77
$GPGSA,A,1,,,,,,,,,,,,,,,*1E
$GPRMC,174858.091,V,,,,,0.00,0.00,120180,,,N*48
$GPVTG,0.0,,M0.0N00,,*2
$GPGGA,174859.091,,,,,0,00,,,M,,M,,*76
$GPGSA,A,1,,,,,,,,,,,,,,,*1E
$GPRMC,174859.091,V,,,,,0.00,0.00,120180,,,N*49
$GPVTG,0.00T,,.0N0.0KN3$GPGGA,174900.091,,,,,0,00,,,M,,M,,*7B
$GPGSA,A,1,,,,,,,,,,,,,,,*1E
$GPGSV,2,1,06,06,,,36,19,,,35,17,,,42,12,,,24*74
$GPGSV,2,,60,,80,,87$PM,140.9,,,,.000,218,,*4
GVG00,,M00,N00,,*2
$GPGGA,174901.091,,,,,0,00,,,M,,M,,*7A
$GPGSA,A,1,,,,,,,,,,,,,,,*1E
$GPRMC,174901.091,V,,,,,0.00,0.00,120180,,,N*45
$GPVTG,0.0,,M00,,.0KN3$GPGGA,174902.091,,,,,0,00,,,M,,M,,*79
$GPGSA,A,1,,,,,,,,,,,,,,,*1E
$GPRMC,174902.091,V,,,,,0.00,0.00,030819,,,N*4F
$GPVTG,0.0T,M00,,.0KN3$GPGGA,174903.091,,,,,0,00,,,M,,M,,*78
$GPGSA,A,1,,,,,,,,,,,,,,,*1E
$GPRMC,174903.091,V,,,,,0.00,0.00,030819,,,N*4E
$GPVTG,0.0T,,.0N00,,*2
$GPGGA,174904.091,,,,,0,00,,,M,,M,,*7F
$GPGSA,A,1,,,,,,,,,,,,,,,*1E
$GPRMC,174904.091,V,,,,,0.00,0.00,030819,,,N*49
$GPVTG,00,,M00,,.0KN32
$GPGGA,174905.091,,,,,0,00,,,M,,M,,*7E
$GPGSA,A,1,,,,,,,,,,,,,,,*1E
$GPGSV,2,1,07,06,,,40,19,,,39,17,,,39,25,,,30*75
$GPGSV,,,71,,50,,40,,57$PRC140.9,,,,.000,389,N4$PT,.0T,M00,,.0KN3$GPGGA,174906.091,,,,,0,00,,,M,,M,,*7D
$GPGSA,A,1,,,,,,,,,,,,,,,*1E
$GPRMC,174906.091,V,,,,,0.00,0.00,030819,,,N*4B
$GPVTG,00,,M00,,.0KN3$GPGGA,174907.091,,,,,0,00,,,M,,M,,*7C
$GPGSA,A,1,,,,,,,,,,,,,,,*1E
$GPRMC,174907.091,V,,,,,0.00,0.00,030819,,,N*4A
$GPVTG,0.0T,,.0N00,,*2
$GPGGA,174908.089,,,,,0,00,,,M,,M,,*7A
$GPGSA,A,1,,,,,,,,,,,,,,,*1E
$GPRMC,174908.089,V,,,,,0.00,0.00,030819,,,N*4C
$GPVTG,00,,M00,,.0KN3$GPGGA,174909.089,,,,,0,00,,,M,,M,,*7B
$GPGSA,A,1,,,,,,,,,,,,,,,*1E
$GPRMC,174909.089,V,,,,,0.00,0.00,030819,,,N*4D
$GPVTG,0.0,,M00,,.0KN3$GPGGA,174910.089,,,,,0,00,,,M,,M,,*73
$GPGSA,A,1,,,,,,,,,,,,,,,*1E
$GPGSV,2,1,08,06,,,43,19,,,43,17,,,48,25,,,26*75
$GPGSV,2,,81,,80,,20,,62,,47$PM,790.8,,,,.000,389,N4$PT,.0T,,.0N,.0KN3$GPGGA,174911.089,,,,,0,00,,,M,,M,,*72
$GPGSA,A,1,,,,,,,,,,,,,,,*1E
$GPRMC,174911.089,V,,,,,0.00,0.00,030819,,,N*44
$GPVTG,00,,M00,,.0,,*2
$GPGGA,174912.089,,,,,0,00,,,M,,M,,*71
$GPGSA,A,1,,,,,,,,,,,,,,,*1E
$GPRMC,174912.089,V,,,,,0.00,0.00,030819,,,N*47
$GPVTG,0.0T,,.0N00,,*2
$GPGGA,174913.089,,,,,0,00,,,M,,M,,*70
$GPGSA,A,1,,,,,,,,,,,,,,,*1E
$GPRMC,174913.089,V,,,,,0.00,0.00,030819,,,N*46
$GPVTG,0.0T,,.0N000KN3$GPGGA,174914.089,,,,,0,00,,,M,,M,,*77
$GPGSA,A,1,,,,,,,,,,,,,,,*1E
$GPRMC,174914.089,V,,,,,0.00,0.00,030819,,,N*41
$GPVTG,00,,M00,,.0KN3$GPGGA,174915.089,,,,,0,00,,,M,,M,,*76
$GPGSA,A,1,,,,,,,,,,,,,,,*1E
$GPGSV,2,1,08,06,,,43,19,,,42,17,,,44,25,,,21*7F
$GPGSV,220,2,2,5,3,9,4,3,3*D
$PM,79509V,,00,.0001,,*0
GVG000T,,.0N00,,*2
$GPGGA,174916.089,,,,,0,00,,,M,,M,,*75
$GPGSA,A,1,,,,,,,,,,,,,,,*1E
$GPRMC,174916.089,V,,,,,0.00,0.00,030819,,,N*43
$GPVTG,0.0T,,.0N00,,*2
$GPGGA,174917.089,,,,,0,00,,,M,,M,,*74
$GPGSA,A,1,,,,,,,,,,,,,,,*1E
$GPRMC,174917.089,V,,,,,0.00,0.00,030819,,,N*42
$GPVTG,0.0T,,.0N00,,N3$GPGGA,174918.089,,,,,0,00,,,M,,M,,*7B
$GPGSA,A,1,,,,,,,,,,,,,,,*1E
$GPRMC,174918.089,V,,,,,0.00,0.00,030819,,,N*4D
$GPVTG,0.0,,M00,,.0KN3$GPGGA,174919.089,,,,,0,00,,,M,,M,,*7A
$GPGSA,A,1,,,,,,,,,,,,,,,*1E
$GPRMC,174919.089,V,,,,,0.00,0.00,030819,,,N*4C
$GPVTG,00,,M00,,.0K,*2
$GPGGA,174920.082,,,,,0,00,,,M,,M,,*7B
$GPGSA,A,1,,,,,,,,,,,,,,,*1E
$GPGSV,3,1,09,06,,,44,19,,,40,17,,,38,25,,,33*72
$GPGSV,320,2,,70,,50,,52,,47$PS,,,90,,97
GRC142.8,,,,.000,389,N4$PT,.0,,M00,,.0KN3$GPGGA,174920.30,,,,0,M,,*0
GGAA1,,,,,,,,1$PM,79032V,,00,.0001,,*6
GVT,.0T,,.0N00,,*2
$GPGGA,174921.302,,,,,0,00,,,M,,M,,*71
$GPGSA,A,1,,,,,,,,,,,,,,,*1E
$GPRMC,174921.302,V,,,,,0.00,0.00,030819,,,N*47
$GPVTG,0.0T,M00,,.0KN3$GPGGA,174922.302,,,,,0,00,,,M,,M,,*72
$GPGSA,A,1,,,,,,,,,,,,,,,*1E
$GPRMC,174922.302,V,,,,,0.00,0.00,030819,,,N*44
$GPVTG,00,,M,.0N00,,*2
$GPGGA,174923.302,,,,,0,00,,,M,,M,,*73
$GPGSA,A,1,,,,,,,,,,,,,,,*1E
$GPRMC,174923.302,V,,,,,0.00,0.00,030819,,,N*45
$GPVTG,0.0T,,.0N00,,*3$GPGGA,174924.302,,,,,0,00,,,M,,M,,*74
$GPGSA,A,1,,,,,,,,,,,,,,,*1E
$GPGSV,3,1,09,06,,,40,19,,,41,17,,,43,25,,,33*7B
$GPGSV,,,91,,90,,4,9,4,3,3*2
GGV330,2,2*5
GRC149432V,,00,.0001,,*2
GVG00,,M0.0N00,,*2
$GPGGA,174925.302,,,,,0,00,,,M,,M,,*75
$GPGSA,A,1,,,,,,,,,,,,,,,*1E
$GPRMC,174925.302,V,,,,,0.00,0.00,030819,,,N*43
$GPVTG,00,,M000N00,,*2
$GPGGA,174926.094,,,,,0,00,,,M,,M,,*7A
$GPGSA,A,1,,,,,,,,,,,,,,,*1E
$GPRMC,174926.094,V,,,,,0.00,0.00,030819,,,N*4C
$GPVTG,00,,M00,,.0K,*2
$GPGGA,174927.094,,,,,0,00,,,M,,M,,*7B
$GPGSA,A,1,,,,,,,,,,,,,,,*1E
$GPRMC,174927.094,V,,,,,0.00,0.00,030819,,,N*4D
$GPVTG,0.0T,,.0N00,,*3$GPGGA,174928.094,,,,,0,00,,,M,,M,,*74
$GPGSA,A,1,,,,,,,,,,,,,,,*1E
$GPRMC,174928.094,V,,,,,0.00,0.00,030819,,,N*42
$GPVTG,0.0,,M00,,.0KN3$GPGGA,174929.094,,,,,0,00,,,M,,M,,*75
$GPGSA,A,1,,,,,,,,,,,,,,,*1E
$GPGSV,3,1,09,06,,,43,19,,,38,17,,,39,25,,,32*7A
$GPGSV,320,2,,90,,80,,72,,17$PS,,,90,,97
GRC142.9,,,,.000,389,N4$PT,.0,,M00,,.0KN3$GPGGA,174930.094,,,,,0,00,,,M,,M,,*7D
$GPGSA,A,1,,,,,,,,,,,,,,,*1E
$GPRMC,174930.094,V,,,,,0.00,0.00,030819,,,N*4B
$GPVTG,0.0,,M00,,.0KN3$GPGGA,174931.094,,,,,0,00,,,M,,M,,*7C
$GPGSA,A,1,,,,,,,,,,,,,,,*1E
$GPRMC,174931.094,V,,,,,0.00,0.00,030819,,,N*4A
$GPVTG,00,,M00,,.0KN3$GPGGA,174932.084,,,,,0,00,,,M,,M,,*7E
$GPGSA,A,1,,,,,,,,,,,,,,,*1E
$GPRMC,174932.084,V,,,,,0.00,0.00,030819,,,N*48
$GPVTG,0.0,,M00,,.0KN3$GPGGA,174932.304,,,,,0,00,,,M,,M,,*75
$GPGSA,A1,,,,,,,*E
GRM,79234V,,00,.0001,,N4$PT,.0T,,.0N0.0KN3$GPGGA,174933.304,,,,,0,00,,,M,,M,,*74
$GPGSA,A,1,,,,,,,,,,,,,,,*1E
$GPGSV,3,1,09,06,,,45,19,,,43,17,,,43,25,,,32*7D
$GPGSV,320,2,4,5,,00,,02,,17$PS,330,2,3*6
GRC143.0,V,,00,.0001,,*2
GVG0.0T,,.0N00,,*2
$GPGGA,174934.304,,,,,0,00,,,M,,M,,*73
$GPGSA,A,1,,,,,,,,,,,,,,,*1E
$GPRMC,174934.304,V,,,,,0.00,0.00,030819,,,N*45
$GPVTG,0.00T,,.0N00,,*2
$GPGGA,174935.304,,,,,0,00,,,M,,M,,*72
$GPGSA,A,1,,,,,,,,,,,,,,,*1E
$GPRMC,174935.304,V,,,,,0.00,0.00,030819,,,N*44
$GPVTG,0.0,,M00,,.0KN3$GPGGA,174936.304,,,,,0,00,,,M,,M,,*71
$GPGSA,A,1,,,,,,,,,,,,,,,*1E
$GPRMC,174936.304,V,,,,,0.00,0.00,030819,,,N*47
$GPVTG,0.00T,,.0N000KN3$GPGGA,174937.304,,,,,0,00,,,M,,M,,*70
$GPGSA,A,1,,,,,,,,,,,,,,,*1E
$GPRMC,174937.304,V,,,,,0.00,0.00,030819,,,N*46
$GPVTG,0.0,,M00,,.0KN3$GPGGA,174938.084,,,,,0,00,,,M,,M,,*74
$GPGSA,A,1,,,,,,,,,,,,,,,*1E
$GPGSV,3,1,09,06,,,41,19,,,44,17,,,45,25,,,22*79
$GPGSV,320,2,3,5,,70,,02,,17$PS,,,90,,372
GRC143.8,,,,.000,389,N*2
GVG00,,M00,,.0,,*2
GGA143.0,,,00,,,M,7$PS,,,,,,,,,,*E
GRC143.0,,,,.0,.0001,,*9
GVG00,,M,.0N00,,*2
$GPGGA,174939.304,,,,,0,00,,,M,,M,,*7E
$GPGSA,A,1,,,,,,,,,,,,,,,*1E
$GPRMC,174939.304,V,,,,,0.00,0.00,030819,,,N*48
$GPVTG,0.0,,M00,,.0KN3$GPGGA,174940.304,,,,,0,00,,,M,,M,,*70
$GPGSA,A,1,,,,,,,,,,,,,,,*1E
$GPRMC,174940.304,V,,,,,0.00,0.00,030819,,,N*46
$GPVTG,0.00T,,.0N00,,*2
$GPGGA,174941.304,,,,,0,00,,,M,,M,,*71
$GPGSA,A,1,,,,,,,,,,,,,,,*1E
$GPRMC,174941.304,V,,,,,0.00,0.00,030819,,,N*47
$GPVTG,0.00T,,.0N00,,*2
$GPGGA,174942.304,,,,,0,00,,,M,,M,,*72
$GPGSA,A,1,,,,,,,,,,,,,,,*1E
$GPGSV,3,1,09,06,,,25,19,,,37,17,,,39,25,,,20*76
$GPGSV,320,2,3,0,,60,,42,,27$PS,330,2,3*4
GRC144234V,,00,.0001,,*4
$PT,.0T,,.0N00,,*2
$GPGGA,174943.304,,,,,0,00,,,M,,M,,*73
$GPGSA,A,1,,,,,,,,,,,,,,,*1E
$GPRMC,174943.304,V,,,,,0.00,0.00,030819,,,N*45
$GPVTG,0.0,,M00,,00,,*2
$GPGGA,174944.096,,,,,0,00,,,M,,M,,*7C
$GPGSA,A,1,,,,,,,,,,,,,,,*1E
$GPRMC,174944.096,V,,,,,0.00,0.00,030819,,,N*4A
$GPVTG,0.0T,,.0,,.0KN3$GPGGA,174945.096,,,,,0,00,,,M,,M,,*7D
$GPGSA,A,1,,,,,,,,,,,,,,,*1E
$GPRMC,174945.096,V,,,,,0.00,0.00,030819,,,N*4B
$GPVTG,0.0,,M00,,.0KN*2
$GPGGA,174946.096,,,,,0,00,,,M,,M,,*7E
$GPGSA,A,1,,,,,,,,,,,,,,,*1E
$GPRMC,174946.096,V,,,,,0.00,0.00,030819,,,N*48
$GPVTG,0.0,,M00,,.0KN3$GPGGA,174947.096,,,,,0,00,,,M,,M,,*7F
$GPGSA,A,1,,,,,,,,,,,,,,,*1E
$GPGSV,3,1,09,06,,,20,19,,,37,17,,,39,25,,,21*72
$GPGSV,3,20,2,3,5,4,9,2,3,,07$PS,,,90,,574
GRC144.9,,,,.0,.0001,,*9
GVG00,,M,.0N00,,*2
$GPGGA,174948.096,,,,,0,00,,,M,,M,,*70
$GPGSA,A,1,,,,,,,,,,,,,,,*1E
$GPRMC,174948.096,V,,,,,0.00,0.00,030819,,,N*46
$GPVTG,0.00T,,.0N00,,*3$GPGGA,174949.096,,,,,0,00,,,M,,M,,*71
$GPGSA,A,1,,,,,,,,,,,,,,,*1E
$GPRMC,174949.096,V,,,,,0.00,0.00,030819,,,N*47
$GPVTG,0.0T,,.0N0.0KN3$GPGGA,174950.096,,,,,0,00,,,M,,M,,*79
$GPGSA,A,1,,,,,,,,,,,,,,,*1E
$GPRMC,174950.096,V,,,,,0.00,0.00,030819,,,N*4F
$GPVTG,0.0,,M00,,.0KN3$GPGGA,174951.096,,,,,0,00,,,M,,M,,*78
$GPGSA,A,1,,,,,,,,,,,,,,,*1E
$GPRMC,174951.096,V,,,,,0.00,0.00,030819,,,N*4E
$GPVTG,0.0,,M0.0N00,,*2
$GPGGA,174952.096,,,,,0,00,,,M,,M,,*7B
$GPGSA,A,1,,,,,,,,,,,,,,,*1E
$GPGSV,3,1,09,06,,,31,19,,,37,17,,,43,25,,,17*7A
$GPGSV,3,20,2,2,5,3,9,3,3,197$PS,,,90,,47$PM,145.9,,,,.000,389,N*D
GVG00,,M00,,.0,,*2
$GPGGA,174953.096,,,,,0,00,,,M,,M,,*7A
$GPGSA,A,1,,,,,,,,,,,,,,,*1E
$GPRMC,174953.096,V,,,,,0.00,0.00,030819,,,N*4C
$GPVTG,0.0T,,.0N0.0KN3$GPGGA,174954.096,,,,,0,00,,,M,,M,,*7D
$GPGSA,A,1,,,,,,,,,,,,,,,*1E
$GPRMC,174954.096,V,,,,,0.00,0.00,030819,,,N*4B
$GPVTG,0.0,,M00,,.0KN3$GPGGA,174955.096,,,,,0,00,,,M,,M,,*7C
$GPGSA,A,1,,,,,,,,,,,,,,,*1E
$GPRMC,174955.096,V,,,,,0.00,0.00,030819,,,N*4A
$GPVTG,0.00T,,.0N00,,*2
$GPGGA,174956.092,,,,,0,00,,,M,,M,,*7B
$GPGSA,A,1,,,,,,,,,,,,,,,*1E
$GPRMC,174956.092,V,,,,,0.00,0.00,030819,,,N*4D
$GPVTG,00,,M00,,.0KN*2
$GPGGA,174957.092,,,,,0,00,,,M,,M,,*7A
$GPGSA,A,1,,,,,,,,,,,,,,,*1E
$GPGSV,3,1,09,02,,,28,06,,,28,19,,,33,17,,,30*7B
$GPGSV,,,92,,91,,50,,90,,3*6
GGV330,3,3*2
GRC145.9,,,,00,.0001,,*C
GVG00,,M00,,.0KN*2
$GPGGA,174958.092,,,,,0,00,,,M,,M,,*75
$GPGSA,A,1,,,,,,,,,,,,,,,*1E
$GPRMC,174958.092,V,,,,,0.00,0.00,030819,,,N*43
$GPVTG,00,,M00,,.0KN3$GPGGA,174959.092,,,,,0,00,,,M,,M,,*74
$GPGSA,A,1,,,,,,,,,,,,,,,*1E
$GPRMC,174959.092,V,,,,,0.00,0.00,030819,,,N*42
$GPVTG,0.0,,M00,,.0KN3$GPGGA,175000.092,,,,,0,00,,,M,,M,,*70
$GPGSA,A,1,,,,,,,,,,,,,,,*1E
$GPRMC,175000.092,V,,,,,0.00,0.00,030819,,,N*46
$GPVTG,00,,M00,,.0KN3
$GPGGA,175001.092,,,,,0,00,,,M,,M,,*71
$GPGSA,A,1,,,,,,,,,,,,,,,*1E
$GPRMC,175001.092,V,,,,,0.00,0.00,030819,,,N*47
$GPVTG,0.0T,,.0N0.0KN3$GPGGA,175002.082,,,,,0,00,,,M,,M,,*73
$GPGSA,A,1,,,,,,,,,,,,,,,*1E
$GPGSV,3,1,09,02,,,40,06,,,27,19,,,22,17,,,33*79
$GPGSV,320,5,3,2,4,5,3,9,2*A
GGV,,,92,,27$PM,70202V,,00,.00089,N4$PT,.0T,,.0N00,,*2
GGA150231,,00,,,M,7$PS,,,,,,,,,,1E
GRC150.0,,,,.7390,389,N4$PTG390,,M04,,.8KN3$GPGGA,175003.301,,,,,0,04,,,M,,M,,*7E
$GPGSA,A,1,,,,,,,,,,,,,,,*1E
$GPRMC,175003.301,V,,,,,3.90,169.84,030819,,,N*44
$GPVTG,6.4T,,.0N72,,*D
$GPGGA,175004.301,,,,,0,04,,,M,,M,,*79
$GPGSA,A,1,,,,,,,,,,,,,,,*1E
$GPRMC,175004.301,V,,,,,2.75,162.04,030819,,,N*4A
$GPVTG,120,,M27,,.9KN3$GPGGA,175006.000,,,,,0,03,,,M,,M,,*7E
$GPGSA,A,1,,,,,,,,,,,,,,,*1E
$GPRMC,175006.000,V,,,,,2.32,155.38,030819,,,N*42
$GPVTG153,,M23,,.0,,*C
$GPGGA,175007.000,,,,,0,03,,,M,,M,,*7F
$GPGSA,A,1,,,,,,,,,,,,,,,*1E
$GPGSV,3,1,09,06,56,033,24,19,51,096,,17,38,108,20,05,33,0,87$PS,,,925,3,2,4,9,2,3,1*9
GGV330,2,3*9$PM,70700V,,21,5.0001,,*1
GVT,5.0T,,.4N39,,*5
$GPGGA,175008.000,,,,,0,03,,,M,,M,,*70
$GPGSA,A,1,,,,,,,,,,,,,,,*1E
$GPRMC,175008.000,V,,,,,2.06,150.00,030819,,,N*45
$GPVTG,5.0T,M20,,.2KN3$GPGGA,175009.000,,,,,0,03,,,M,,M,,*71
$GPGSA,A,1,,,,,,,,,,,,,,,*1E
$GPRMC,175009.000,V,,,,,2.04,150.55,030819,,,N*46
$GPVTG,105,,M20,,.9KN3$GPGGA,175010.000,,,,,0,03,,,M,,M,,*79
$GPGSA,A,1,,,,,,,,,,,,,,,*1E
$GPRMC,175010.000,V,,,,,1.67,140.67,030819,,,N*48
$GPVTG,4.7T,,.7N30,,*C
$GPGGA,175011.000,,,,,0,03,,,M,,M,,*78
$GPGSA,A,1,,,,,,,,,,,,,,,*1E
$GPRMC,175011.000,V,,,,,1.53,135.92,030819,,,N*46
$GPVTG159,,M15,,.3KN3$GPGGA,175012.000,,,,,0,04,,,M,,M,,*7C
$GPGSA,A,1,,,,,,,,,,,,,,,*1E
$GPGSV,3,1,10,06,56,033,28,19,51,096,31,17,38,108,30,05,3,0,97$PS,,,04,027,2,,31,,00,,44$PS,,,02,,70,,67F
GRC151.0,,,,.4182,389,N4$PTG182,,M09,,.3KN3$GPGGA,175013.000,3546.0643,N,07839.6875,W,1,04,1.92,58.5,M,-33.0,M,,*68
$GPGSA,A,2,06,19,17,05,,,,,,,,,2.16,1.92,1.00*00
$GPM,70300A34.63N083.85W12,5.3001,,*6
GVG120,,M122N22,,*F
$GPGGA,175014.000,3546.0655,N,07839.6876,W,1,04,1.92,47.9,M,-33.0,M,,*69
$GPGSA,A,2,06,19,17,05,,,,,,,,,2.16,1.92,1.00*00
$GPRC151.0,,5605,,73.86,,.5188,389,A7$PT,4.7T,,.5N195KA3$GPGGA,175015.000,3546.0660,N,07839.6876,W,1,04,1.92,42.4,M,-$GPGSA,A,2,06,19,17,05,,,,,,,,,2.16,1.92,1.00*00
$GPM,70500A34.60N08967,,09,4.5001,,*D
GVG173,,M09,,.8K,*8
$GPGGA,175016.000,3546.0664,N,07839.6880,W,1,04,1.92,40.1,M,-33.0,M,,*6F
$GPGSA,A,2,06,19,17,05,,,,,,,,,2.16,1.92,1.00*00
$GPRM,70600A34.64N08968,,.2155,001,,*B
GVG155,,M07,,.3KA3$GPGGA,175017.000,3546.0667,N,07839.6883,W,1,04,1.92,38.7,M,-33.0,M,,*67
$GPGSA,A,2,06,19,17,05,,,,,,,,,2.16,1.92,1.00*00
$GPGV310,65,3,91,109,71,8183,53,0,47$PS,,,94,027,2,,91,,30,,74$PS,,,90,,07$GRC151.0,,5606,,73.83W04,6.20089,A7$PT,6$GPGGA,175018.000,3546.0667,N,07839.6883,W,1,04,1.92,37.2,M,-33.0,M,,*62
$GPGSA,A,2,06,19,17,05,,,,,,,,,2.16,1.92,1.00*00
$GPRC151.0,,5606,,73.68,,.0154,389,A7$PT,6.0T,,.0N,.4KA3$GPGGA,175019.000,3546.0661,N,07839.6880,W,1,04,1.92,40.8,M,-$GPGSA,A,3,06,19,17,05,,,,,,,,,2.16,1.92,1.00*01
$GPM,70900A34.06,,73.80W03,7.8001,,*9
GVG13.8T,,.7N06,,*8
$GPGGA,175020.000,3546.0662,N,07839.6882,W,1,04,1.92,41.2,M,-33.0,M,,*6C
$GPGSA,A,3,06,19,17,05,,,,,,,,,2.16,1.92,1.00*01
$GPRC,70000A34.62N08968,,.1162,389,,*F
GVG162,,M02,,.0KA3$GPGGA,175021.000,3546.0660,N,07839.6877,W,1,04,1.92,43.5,M,-33.0,M,,*60
$GPGSA,A,3,06,19,17,05,,,,,,,,,2.16,1.92,1.00*01
$GPRC152.0,,56060N08967,,.26.4001,,*9
GVG6.4T,M06,,.5KA0$GPGGA,175022.000,3546.0653,N,07839.6873,W,1,04,1.92,48.0,M,-33.0,M,,*69
$GPGSA,A,3,06,19,17,05,,,,,,,,,2.16,1.92,1.00*01
$GPGV311,65,3,61,1063,7,8183,53,0,97$PS,,,03,216,5,401,,60,,94$PS,,,02,,90,,87$GRC152.0,,5605,,73.83W02,06,381,,*2
GVG8.1T,,.8N05,,*F
$GPGGA,175023.000,3546.0648,N,07839.6874,W,1,04,1.92,52.0,M,-33.0,M,,*6E
$GPGSA,A,3,06,19,17,05,,,,,,,,,2.16,1.92,1.00*01
$GPM,70300A34.68N,73.84W01,19,389,A4$PT,19,,M0.7N03,,*3
$GPGGA,175024.000,3546.0643,N,07839.6875,W,1,04,1.92,55.7,M,-33.0,M,,*63
$GPGSA,A,3,06,19,17,05,,,,,,,,,2.16,1.92,1.00*01
$GPRM,70400A34.63N08967,,.318.8001,,*5
GVG181,,M01,,.4KA3
$GPGGA,175025.000,3546.0639,N,07839.6876,W,1,04,1.92,58.6,M,-33.0,M,,*60
$GPGSA,A,3,06,19,17,05,,,,,,,,,2.16,1.92,1.00*01
$GPRM,70500A34.69N08967,,.2156,001,,*A
GVG156,,M00,,.5KA3$GPGGA,175026.000,3546.0635,N,07839.6877,W,1,04,1.92,60.9,M,-33.0,M,,*6A
$GPGSA,A,3,06,19,17,05,,,,,,,,,2.16,1.92,1.00*01
$GPRM,70600A34.65N08967,,.3156,301,,*5
GVG156,,M01,,.4KA3$GPGGA,175027.000,3546.0634,N,07839.6881,W,1,05,1.41,63.1,M,-33.0,M,,*67
$GPGSA,A,3,06,19,17,05,02,,,,,,,,1.73,1.41,1.00*0D
$GGV311,2,7293,65,3,01,1072,73,0,77$PSV321,53,0,93,216,5,2,2,4*D
GGV,,,00,,72,,97$PM,70700A34.64,,73.81W01,6.7001,,*C
GVG133,,,,.3N02,,*9
$GPGGA,175028.000,3546.0635,N,07839.6885,W,1,05,1.41,64.8,M,-33.0,M,,*63
$GPGSA,A,3,06,19,17,05,02,,,,,,,,1.73,1.41,1.00*0D
$GRC152.0,,5603,,73.85W00,8.10389,A7$PT,8.1T,,.1N00,,*3
$GPGGA,175029.000,3546.0636,N,07839.6890,W,1,05,1.41,67.1,M,-33.0,M,,*6F
$GPGSA,A,3,06,19,17,05,02,,,,,,,,1.73,1.41,1.00*0D
$GRC152.0,,5603,,78969,,.63.6001,,*D
GVG3.6T,,.6,,.2KA0$GPGGA,175030.000,3546.0638,N,07839.6897,W,1,05,1.41,70.0,M,-33.0,M,,*69
$GPGSA,A,3,06,19,17,05,02,,,,,,,,1.73,1.41,1.00*0D
$GPM,70000A34.68N08969,,.43.9,389,A4$PT,89,,M00,,.7KA0$GPGGA,175031.000,3546.0639,N,07839.6898,W,1,05,1.41,70.2,M,-33$GPGSA,A,3,06,19,17,05,02,,,,,,,,1.73,1.41,1.00*0D
$PM,70100A34.69,,73.88W00,2.7001,,*B
GVG374,,,,.2N00,,*9
$GPGGA,175032.000,3546.0639,N,07839.6899,W,1,05,1.41,71.2,M,-33.0,M,,*67
$GPGSA,A,3,06,19,17,05,02,,,,,,,,1.73,1.41,1.00*0D
$GGV311,25,9,3065,3,31,1072,73,0,67$PS,,,0513,2,70,3254,5,3,2,4*5
GGV331,0,,12,,77$PM,70200A34.69N089.89W00,4.5001,,*C
GVG202,,M00,N00,,*9
$GPGGA,175033.000,3546.0639,N,07839.6899,W,1,05,1.41,71.6,M,-33.0,M,,*62
$GPGSA,A,3,06,19,17,05,02,,,,,,,,1.73,1.41,1.00*0D
$PM,70300A34.69N,73.89W00,4.8001,,*B
GVG265,,,,.9N01,,*F
$GPGGA,175034.000,3546.0638,N,07839.6901,W,1,05,1.41,73.1,M,-33.0,M,,*61
$GPGSA,A,3,06,19,17,05,02,,,,,,,,1.73,1.41,1.00*0D
$GRC153.0,,5603,,73.91W02,6.2,389,A7$PT,6.7T,,.7N05,,*4
$GPGGA,175035.000,3546.0635,N,07839.6901,W,1,05,1.41,76.4,M,-33.0,M,,*6D
$GPGSA,A,3,06,19,17,05,02,,,,,,,,1.73,1.41,1.00*0D
$GRC170500A34.65N08960,,.5263,389,A*D
GVG263,,M00,,.0KA3$GPGGA,175036.000,3546.0630,N,07839.6902,W,1,05,1.41,80.8,M,-33.0,M,,*6D
$GPGSA,A,3,06,19,17,05,02,,,,,,,,1.73,1.41,1.00*0D
$PM,70600A34.60,,73.92W00,4.7001,,*F
GVG360,,,,.9N01,,*4
$GPGGA,175037.000,3546.0624,N,07839.6900,W,1,05,3.21,84.8,M,-33.0,M,,*6B
$GPGSA,A,3,06,19,17,05,02,,,,,,,,11.47,3.21,11.01*0F$PSV311,25,9,30,6033,95,9,11,818447$PS,,,05,8234,53,0,62,,11,,4*7GGV331,9,4,3,3*6
GRC153.00A34.64N08960,,.4166,389,A7$PVG166,,M01,,.6KA3$GPGGA,175038.000,3546.0616,N,07839.6897,W,1,05,1.41,89.2,M,-33$GPGSA,A,3,06,19,17,05,02,,,,,,,,1.73,1.41,1.00*0D
$PM,70800A34.66N,73.87W01,18,389,A4$PT,18,,M,.2N02,,*2
$GPGGA,175039.000,3546.0612,N,07839.6894,W,1,05,1.41,92.0,M,-33.0,M,,*67
$GPGSA,A,3,06,19,17,05,02,,,,,,,,1.73,1.41,1.00*0D
$GRC153.0,,5601,,73.84W00,165,389,A7$PT,2.7T,,.5N01,,*E$GPGGA,175040.000,3546.0611,N,07839.6893,W,1,05,1.41,92.8,M,-3$GPGSA,A,3,06,19,17,05,02,,,,,,,,1.73,1.41,1.00*0D
$GRC154.0,,34.61N08969,,.47.0001,,*7
GVG768,,M01,,.6KA0$GPGGA,175041.000,3546.0611,N,07839.6893,W,1,05,1.41,93.3,M,-33.0,M,,*6E
$GPGSA,A,3,06,19,17,05,02,,,,,,,,1.73,1.41,1.00*0D
$GRC,70100A34.61N08969,,.1135,389,,*E
GVG135,,M01,,.1KA3$GPGGA,175042.000,3546.0610,N,07839.6893,W,1,05,1.41,93.5,M,-33.0,M,,*6A
$GPGSA,A,3,06,19,17,05,02,,,,,,,,1.73,1.41,1.00*0D
$GGV311,257293,65,3,71,1072,73,0,27$PS,321,13,2,70,3252,5,2,2,3*F
GGS,,,00,,92,,17$PM,70200A34.60,,73.83W01,6.5001,,*B
GVG164,,,,.2N02,,*F
$GPGGA,175043.000,3546.0610,N,07839.6893,W,1,05,1.41,93.7,M,-33.0,M,,*69
$GPGSA,A,3,06,19,17,05,02,,,,,,,,1.73,1.41,1.00*0D
$GPM,70300A34.60N08969,,.120.3001,,*D
GVG214,,M01,,.1KA3
$GPGGA,175044.000,3546.0609,N,07839.6894,W,1,05,1.41,94.2,M,-33.0,M,,*63
$GPGSA,A,3,06,19,17,05,02,,,,,,,,1.73,1.41,1.00*0D
$PM,70400A34.69N089684W01,9.6001,,*E
GVG130,,M01,,02,,*5
$GPGGA,175045.000,3546.0607,N,07839.6893,W,1,05,1.41,95.9,M,-33.0,M,,*61
$GPGSA,A,3,06,19,17,05,02,,,,,,,,1.73,1.41,1.00*0D
$PMC154.0,,5600,,73.83W00,7.5001,,A7$PT,7.5T,,.6N01,,*8
$GPGGA,175046.000,3546.0607,N,07839.6892,W,1,05,1.41,97.2,M,-33.0,M,,*6A
$GPGSA,A,3,06,19,17,05,02,,,,,,,,1.73,1.41,1.00*0D
$GRC154.0,,5600,,73.82W00,141,389,A7$PT,5.9T,,.7N01,,*0$GPGGA,175047.000,3546.0607,N,07839.6892,W,1,05,1.41,98.3,M,-3$GPGSA,A,3,06,19,17,05,02,,,,,,,,1.73,1.41,1.00*0D
$PS,,,00,7294,65,333,95,9,51,8184*A
GGV321,13,2,4,53,0,62,,81,,67$PS,,,00,,123,3*6
GRC154.0,,5600,,73.82W0.0209,389,A7$PT,9.0T,,.0N00,,A3$GPGGA,175048.000,3546.0606,N,07839.6892,W,1,05,1.41,98.9,M,-33$GPGSA,A,3,06,19,17,05,02,,,,,,,,1.73,1.41,1.00*0D
$GRC154.0,,5600,,73.69,,.77.3001,,*A
GVG7.3T,,.7N0.3KA0$GPGGA,175049.000,3546.0606,N,07839.6892,W,1,05,1.41,98.9,M,-33.0,M,,*60
$GPGSA,A,3,06,19,17,05,02,,,,,,,,1.73,1.41,1.00*0D
$GRC154900A34.66N08969,,.7208,389,A7
GVG208,,M00,,.3KA3$GPGGA,175050.000,3546.0606,N,07839.6892,W,1,05,1.41,98.9,M,-33.0,M,,*68
$GPGSA,A,3,06,19,17,05,02,,,,,,,,1.73,1.41,1.00*0D
$PM,70000A34.66N08969,,01,1.6001,,*8
GVG310,,M01,,.1,,*B
$GPGGA,175051.000,3546.0606,N,07839.6893,W,1,06,1.28,98.9,M,-33.0,M,,*64
$GPGSA,A,3,06,19,17,12,05,02,,,,,,,1.62,1.28,0.99*00$PM,70100A34.66N083.83W00,3.1001,,*B
GVG388,,M0.7N01,,*9
$GPGGA,175052.000,3546.0606,N,07839.6893,W,1,06,1.28,99.0,M,-33.0,M,,*6F
$GPGSA,A,3,06,19,17,12,05,02,,,,,,,1.62,1.28,0.99*00$PS,311,25,9,20,6034,95,9,51,8214*7$PS,,,01,8184,13,2,20,3254,5,,$GPGGA,175053.000,3546.0606,N,07839.6893,W,1,06,1.28,99.0,M,-33.0,M,,*6E
$GPGSA,A,3,06,19,17,12,05,02,,,,,,,1.62,1.28,0.99*00
GRC150300A34.66N08969,,.1234,389,A*A
GVG234,,M00,,.1KA3$GPGGA,175054.000,3546.0606,N,07839.6893,W,1,06,1.28,99.0,M,-33.0,M,,*69
$GPGSA,A,3,06,19,17,12,05,02,,,,,,,1.62,1.28,0.99*00$PM,70400A34.66N08969,,00,1.1001,,*9
GVG123,,M00,,.1,,*D
$GPGGA,175055.000,3546.0606,N,07839.6893,W,1,06,1.28,99.0,M,-33.0,M,,*68
$GPGSA,A,3,06,19,17,12,05,02,,,,,,,1.62,1.28,0.99*00$PM,155.0,,5600,,73.83W00,6.8001,,A7$PT,6.8T,,.1N00,,*2
$GPGGA,175056.000,3546.0606,N,07839.6893,W,1,06,1.28,99.0,M,-33.0,M,,*6B
$GPGSA,A,3,06,19,17,12,05,02,,,,,,,1.62,1.28,0.99*00
GRC155.0,,5600,,73.69,,.0238,389,A7$PT,9.8T,,.0N,.1KA3$GPGGA,175057.000,3546.0606,N,07839.6893,W,1,06,1.28,99.0,M,-33$GPGSA,A,3,06,19,17,12,05,02,,,,,,,1.62,1.28,0.99*00$PS,,,00,7294,65,3,71,1,9,51,8214*F
GGV321,73,0,45,8,2,20,3254,5,2*5
GGV331,9,4,3,,37$PM,70700A34.66N08969,,.0,1.6001,,*C
GVG167,,M00,,.1KA3B
$GPGGA,175058.000,3546.0606,N,07839.6893,W,1,06,1.28,99.1,M,-33.0,M,,*64
$GPGSA,A,3,06,19,17,12,05,02,,,,,,,1.62,1.28,0.99*00$PM,155.0,,5600,,73.83W00,3.4001,,A7$PT,3.4T,,.0N00,,*1
$GPGGA,175059.000,3546.0606,N,07839.6893,W,1,06,1.28,99.1,M,-33.0,M,,*65
$GPGSA,A,3,06,19,17,12,05,02,,,,,,,1.62,1.28,0.99*00
GRC155.0,,5600,,73.83W001124,389,A7$PT,6.1T,,.1N00,,A3$GPGGA,175100.000,3546.0606,N,07839.6893,W,1,06,1.28,99.1,M,-33$GPGSA,A,3,06,19,17,12,05,02,,,,,,,1.62,1.28,0.99*00
GRC171000A34.66N08969,,.0206,389,A*F
GVG206,,M00,,.1KA3$GPGGA,175101.000,3546.0606,N,07839.6893,W,1,06,1.28,99.1,M,-33.0,M,,*69
$GPGSA,A,3,06,19,17,12,05,02,,,,,,,1.62,1.28,0.99*00
GRC150.0,,5600,,73.83W00,0.3,389,A7$PT,0.6T,,.0N00,,*F
$GPGGA,175102.000,3546.0606,N,07839.6893,W,1,06,1.28,99.1,M,-33.0,M,,*6A
$GPGSA,A,3,06,19,17,12,05,02,,,,,,,1.62,1.28,0.99*00
GGV311,25,9,30,603,71,1074,24,9,47$PS,,,01,818455,8234,53,0,62,,74$PS,,,00,,4,3,3*2
GRC150.0,,5600,,73.89,,.19.6001,,*9
GVG9.6T,,.1N001KA0$GPGGA,175103.000,3546.0606,N,07839.6893,W,1,08,1.08,99.1,M,-33.0,M,,*67
$GPGSA,A,3,06,19,17,12,05,09,23,02,,,,,1.39,1.08,0.870$PRC150.0,,5600,,73.83W00,.0001,,A7$PT,.0T,,.0N00,,*D
$GPGGA,175104.000,3546.0607,N,07839.6892,W,1,08,1.13,98.6,M,-33.0,M,,*6C
$GPGSA,A,3,06,19,17,12,05,09,23,02,,,,,2.12,1.13,1.80*D
GPM,71400A34.67N08969,,.02.70089,A4$PT,01,,M00,,.0KA0$GPGGA,175105.000,3546.0607,N,07839.6892,W,1,08,1.08,98.5,M,-33.$GPGSA,A,3,06,19,17,12,05,09,23,02,,,,,1.39,1.08,0.87*B
GRC150.0,,5600,,73.82W,.0255,389,A7$PT,9.5T,,.0N001KA3$GPGGA,175106.000,3546.0607,N,07839.6892,W,1,08,1.08,98.5,M,-33$GPGSA,A,3,06,19,17,12,05,09,23,02,,,,,1.39,1.08,0.87*B
GRC150.0,,5600,,73.82,,.1159,389,A7$PT,7.6T,,.1N001KA3$GPGGA,175107.000,3546.0607,N,07839.6892,W,1,08,1.08,98.5,M,-33$GPGSA,A,3,06,19,17,12,05,09,23,02,,,,,1.39,1.08,0.87*B
GGV311,25,294,65,3,71,1074,24,9,47$PS,321,73,0,55,8234,53,0,60,0054*7$PS,,,02,9003,5,2*0
GRC150.00A34.67N08969,,.0129,389,A7$GVG129,,M00,,.1KA3$GPGGA,175108.000,3546.0607,N,07839.6892,W,1,08,1.08,98.5,M,-33$GPGSA,A,3,06,19,17,12,05,09,23,02,,,,,1.39,1.08,0.87*0$PM,71800A34.67N08969,,.0,4.4001,,*3
GVG298,,M00,,.1K,*F
$GPGGA,175109.000,3546.0607,N,07839.6892,W,1,08,1.08,98.5,M,-33.0,M,,*68
$GPGSA,A,3,06,19,17,12,05,09,23,02,,,,,1.39,1.08,0.87*B
GRC150.0,,5600,,73.82,,.1177,389,A7$PT,5.0T,,.1N002KA3$GPGGA,175110.000,3546.0607,N,07839.6892,W,1,08,1.08,98.5,M,-33$GPGSA,A,3,06,19,17,12,05,09,23,02,,,,,1.39,1.08,0.87*B
GRC151.0,,5600,,73.82W00,169,389,A7$PT,1.7T,,.0N00,,*6$GPGGA,175111.000,3546.0607,N,07839.6892,W,1,08,1.08,98.5,M,-33$GPGSA,A,3,06,19,17,12,05,09,23,02,,,,,1.39,1.08,0.87*B
GRC151.0,A34.67N08969,,.1193,389,A7$PTG193,,M00,,.1KA3$GPGGA,175112.000,3546.0607,N,07839.6892,W,1,08,1.08,98.5,M,-33$GPGSA,A,3,06,19,17,12,05,09,23,02,,,,,1.39,1.08,0.87*B
GGV311,2,7294,65,3,71,1074,24,9,47$PGV321,73,0,55,8234,53,0,60,005,17$PS,,,02,9003,5,2*0
GRC151200A34.67N08969,,.18.4001,,*C$PT,39,,M00,,.1KA0$GPGGA,175113.000,3546.0607,N,07839.6892,W,1,08,1.08,98.5,M,-33.$GPGSA,A,3,06,19,17,12,05,09,23,02,,,,,1.39,1.08,0.870$PM,71300A,5600,,73.82W00,8.0001,,*4
GVG,8.0T,,.1N00,,*2
$GPGGA,175114.000,3546.0607,N,07839.6892,W,1,08,1.08,98.5,M,-33.0,M,,*64
$GPGSA,A,3,06,19,17,12,05,09,23,02,,,,,1.39,1.08,0.87*B
GRC151.0,,5600,,73.82W00,267,389,A7$PT,7.1T,,.0N00,,*3$GPGGA,175115.000,3546.0607,N,07839.6892,W,1,08,1.08,98.5,M,-33$GPGSA,A,3,06,19,17,12,05,09,23,02,,,,,1.39,1.08,0.870$PM,71500A34.67N073.82W00,93,389,A4$PT,93,,M0.0N00,,*D
$GPGGA,175116.000,3546.0607,N,07839.6892,W,1,08,1.13,98.5,M,-33.0,M,,*6C
$GPGSA,A,3,06,19,17,12,05,09,23,02,,,,,2.13,1.13,1.80*C
GRC151.0,,5600,,73.82W,.1111,389,A7$PT,6.0T,,.1N00,KA3$GPGGA,175117.000,3546.0607,N,07839.6892,W,1,08,1.13,98.5,M,-33$GPGSA,A,3,06,19,17,12,05,09,23,02,,,,,2.13,1.13,1.80*0$PS,,,00,7294,65,3,71,1,9,41,8214*E
GGV321,73,0,55,822,20,3254,92,8,17$PS,,,02,905,42,,74$PM,71700A34.67N089692W00,3.2001,,*3
GVG378,,M00,,00,,*0
$GPGGA,175118.000,3546.0607,N,07839.6892,W,1,08,1.13,98.5,M,-33.0,M,,*62
$GPGSA,A,3,06,19,17,12,05,09,23,02,,,,,2.12,1.13,1.800$PM,71800,,5600,,73.82W00,74,389,A4$PTG7.1T,,.0N00,,*9
$GPGGA,175119.000,3546.0607,N,07839.6892,W,1,08,1.13,98.5,M,-33.0,M,,*63
$GPGSA,A,3,06,19,17,12,05,09,23,02,,,,,2.13,1.13,1.80*C
GRC151.0,,5600,,73.82W00000,389,A7$PT,.0T,,.0N00,,*D
$GPGGA,175120.000,3546.0607,N,07839.6892,W,1,08,1.13,98.5,M,-33.0,M,,*69
$GPGSA,A,3,06,19,17,12,05,09,23,02,,,,,2.13,1.13,1.800
GRC152.0,,5600,,73.82W00,0.90389,A7$PT,0.9T,,.0N00,,*6
$GPGGA,175121.000,3546.0607,N,07839.6892,W,1,09,0.98,98.5,M,-33.0,M,,*6B
$GPGSA,A,3,06,19,17,25,12,05,09,23,02,,,,1.79,0.98,1.90$PM,71100A34600,,73.82W00,2.3001,,*E
GVG12.3T,,.1N00,,*A
$GPGGA,175122.000,3546.0607,N,07839.6892,W,1,09,0.98,98.5,M,-33.0,M,,*68
$GPGSA,A,3,06,19,17,25,12,05,09,23,02,,,,1.79,0.98,1.90$PS,,,0025,0,30,6034,95,9,41,8214*F
GGS,,,01,8184,13,2,20,3254,92,8,4*5
GGV331,51,1,72,9003*F
GRC,71200A34.67N08969,,.08.1001,,A4$PT,22,,M00,,.1KA0$GPGGA,175123.000,3546.0607,N,07839.6892,W,1,09,0.98,98.5,M,-33.$GPGSA,A,3,06,19,17,25,12,05,09,23,02,,,,1.79,0.98,1.4*3
GRC152.0,,56.67N08969,,.1123,389,A7$PT,623,,M00,,.1KA3$GPGGA,175124.000,3546.0607,N,07839.6892,W,1,09,0.98,98.5,M,-33$GPGSA,A,3,06,19,17,25,12,05,09,23,02,,,,1.79,0.98,1.90$PM,71400A35600,,73.82W00,17,389,A4$PT,1.8T,,.0N00,,*A
$GPGGA,175125.000,3546.0607,N,07839.6892,W,1,09,0.98,98.5,M,-33.0,M,,*6F
$GPGSA,A,3,06,19,17,25,12,05,09,23,02,,,,1.79,0.98,1.490$PM,71500A34.67N089692W00,0.7001,,*A
GVG130,,M00,,.0,,*9
$GPGGA,175126.000,3546.0607,N,07839.6892,W,1,09,0.98,98.5,M,-33.0,M,,*6C
$GPGSA,A,3,06,19,17,25,12,05,09,23,02,,,,1.79,0.98,1.4*3
GRC152.0,,5600,,73.82W0001.1001,,*2
GVG1.1T,,.0N00,,*3$GPGGA,175127.000,3546.0607,N,07839.6892,W,1,09,0.98,98.5,M,-33.0,M,,*6D
$GPGSA,A,3,06,19,17,25,12,05,09,23,02,,,,1.79,0.98,1.4*3$PS,,,00,7304,65,3,71,1074,2,8214*B
GGV321,73,0,55,8234,534254,92,8,17$PS,,,02,5392,30,003*E
GRC152.0,,5600,,73.82W0.1106,389,A7$PT,3.7T,,.1N00,,A3$GPGGA,175128.000,3546.0607,N,07839.6892,W,1,09,0.98,98.5,M,-33$GPGSA,A,3,06,19,17,25,12,05,09,23,02,,,,1.79,0.98,1.4*3
GPM,71800A34.67N08969,,.0311,301,,*6
GVG311,,M00,,.1KA3$GPGGA,175129.000,3546.0607,N,07839.6892,W,1,09,0.98,98.5,M,-33.0,M,,*63
$GPGSA,A,3,06,19,17,25,12,05,09,23,02,,,,1.79,0.98,1.90$PM,71900,,5600,,73.82W00,98,389,A4$PTG2.0T,,.0N00,,*F
$GPGGA,175130.000,3546.0607,N,07839.6892,W,1,09,0.98,98.5,M,-33.0,M,,*6B
$GPGSA,A,3,06,19,17,25,12,05,09,23,02,,,,1.79,0.98,1.4*3
GRC153.0,,56067N08969,,.0113,389,A7$PT,2.8,,M00,,.0KA3$GPGGA,175131.000,3546.0607,N,07839.6892,W,1,09,0.98,98.5,M,-33$GPGSA,A,3,06,19,17,25,12,05,09,23,02,,,,1.79,0.98,1.490$PM,71100A34.67N08969,,.031.9001,,*4
GVG310,,M00,,.0KA3
$GPGGA,175132.000,3546.0607,N,07839.6892,W,1,09,0.98,98.5,M,-33.0,M,,*69
$GPGSA,A,3,06,19,17,25,12,05,09,23,02,,,,1.79,0.98,1.4*3
GGV311,25,0,30,504,71,1074,24,9,47$PS,,,01,818455,8234,53,0,60,0054*2
GGV331,2,5392,30,5,47$PM,71200A34.60,,73.82W00,0.2001,,*C
GVG125,T,,.1N00,,*9
$GPGGA,175133.000,3546.0607,N,07839.6892,W,1,09,0.98,98.5,M,-33.0,M,,*68
$GPGSA,A,3,06,19,17,25,12,05,09,23,02,,,,1.79,0.98,1.00$PRC153.0,,5600,,73.82W00,6.10019,A7$PT,6.1T,,.0N00,,*E
$GPGGA,175134.000,3546.0607,N,07839.6892,W,1,09,0.98,98.5,M,-33.0,M,,*6F
$GPGSA,A,3,06,19,17,25,12,05,09,23,02,,,,1.79,0.98,1.4*3
GRC153.0,,5600,,73.82W0.1171,389,A7$PT,2.0T,,.1N00,,A3$GPGGA,175135.000,3546.0607,N,07839.6892,W,1,09,0.98,98.5,M,-33$GPGSA,A,3,06,19,17,25,12,05,09,23,02,,,,1.79,0.98,1.4*3
GRC153.0,,56.67N08969,,.09.2001,,*D
GVG9.1,,M00,,.0KA0$GPGGA,175136.000,3546.0607,N,07839.6892,W,1,09,0.98,98.5,M,-33.0,M,,*6D
$GPGSA,A,3,06,19,17,25,12,05,09,23,02,,,,1.79,0.98,1.00$PM,753.0,,5600,,73.82W00,1.3001,,A7$PT,1.3T,,.0N00,,*D
$GPGGA,175137.000,3546.0607,N,07839.6892,W,1,09,0.98,98.5,M,-33.0,M,,*6C
$GPGSA,A,3,06,19,17,25,12,05,09,23,02,,,,1.79,0.98,1.5*B
GGV,,,00,7304,65,3,71,1074,24,9,4*A
GGV321,73,0,55,8234,53,0,6,92,8,17$PS,,,02,5392,30,5,47F
GRC153.0,,5600,,73.82W00,1.4,389,A7$PT,1.4T,,.0N00,,*C
$GPGGA,175138.000,3546.0606,N,07839.6892,W,1,09,0.98,98.5,M,-33.0,M,,*62
$GPGSA,A,3,06,19,17,25,12,05,09,23,02,,,,1.79,0.98,1.5*B
GRC151800A34.66N08969,,.0117,389,A77
GVG117,,M00,,.1KA3$GPGGA,175139.000,3546.0606,N,07839.6892,W,1,09,0.98,98.5,M,-33.0,M,,*63
$GPGSA,A,3,06,19,17,25,12,05,09,23,02,,,,1.79,0.98,1.5*B
GRC153.0,,5600,,73.82,,.000,389,A7$PT,.0T,,.0N00,,A3$GPGGA,175140.000,3546.0606,N,07839.6892,W,1,09,0.98,98.5,M,-33.0$GPGSA,A,3,06,19,17,25,12,05,09,23,02,,,,1.79,0.98,1.500$PM,71000A34.66N08969,,.0,5.7001,,*9
GVG125,,M00,,.1KA*8
$GPGGA,175141.000,3546.0606,N,07839.6892,W,1,09,0.98,98.5,M,-33.0,M,,*6C
$GPGSA,A,3,06,19,17,25,12,05,09,23,02,,,,1.79,0.98,1.00$GRC154.0,,5600,,73.82W00,4.90089,A7$PT,4.9T,,.1N00,,*2
$GPGGA,175142.000,3546.0606,N,07839.6892,W,1,09,0.98,98.5,M,-33.0,M,,*6F
$GPGSA,A,3,06,19,17,25,12,05,09,23,02,,,,1.79,0.98,1.500$PS,,,00,7304,65,3,71,5,9,41,8204*A
GGV321,73,0,55,3,2,20,4254,92,8,17$PS,,,02,1,1,62,9003*E
GRC154.0,,5600,,08969,,.0175,389,A7$PT,2.4T,M00,,.0KA3$GPGGA,175143.000,3546.0606,N,07839.6892,W,1,09,0.98,98.5,M,-33$GPGSA,A,3,06,19,17,25,12,05,09,23,02,,,,1.79,0.98,1.500$PM,71300A34.66N08969,,00,.0001,,*E
GVG00,,M00,,.0KA3D
$GPGGA,175144.000,3546.0606,N,07839.6892,W,1,09,0.98,98.5,M,-33.0,M,,*69
$GPGSA,A,3,06,19,17,25,12,05,09,23,02,,,,1.79,0.98,1.00$PM,71400,,5600,,73.82W00,08,389,A4$PVG9.0T,,.0N00,,*D
$GPGGA,175145.000,3546.0606,N,07839.6892,W,1,09,0.98,98.5,M,-33.0,M,,*68
$GPGSA,A,3,06,19,17,25,12,05,09,23,02,,,,1.79,0.98,1.5*B
GRC154.0,,5600,,73.82W,.110,389,A7$PT,.7T,,.1N00,,*3$GPGGA,175146.000,3546.0606,N,07839.6892,W,1,09,0.98,98.5,M,-33.0$GPGSA,A,3,06,19,17,25,12,05,09,23,02,,,,1.79,0.98,1.5*B
GRC154.00A34.66N08969,,.1261,389,A7$GVG261,,M00,,.1KA3$GPGGA,175147.000,3546.0606,N,07839.6892,W,1,09,0.98,98.5,M,-33$GPGSA,A,3,06,19,17,25,12,05,09,23,02,,,,1.79,0.98,1.5*B
GGV311,25,004,65,3,71,1074,24,9,47$PS,,,1,73,0,55,8234,53,0,60,0054*2$PS,,,02,5392,30,4,47$PM,717.0,,5600,,73.82W00,$GPGGA,175148.000,3546.0606,N,07839.6892,W,1,09,0.98,98.5,M,-33.0,M,,*65
$GPGSA,A,3,06,19,17,25,12,05,09,23,02,,,,1.79,0.98,1.00$PM,71800A,5600,,73.82W00,.2001,,*5
GVG7.2T,,.0N00,,*D
$GPGGA,175149.000,3546.0606,N,07839.6892,W,1,09,0.98,98.5,M,-33.0,M,,*64
$GPGSA,A,3,06,19,17,25,12,05,09,23,02,,,,1.79,0.98,1.5*B
GRC154.0,,5600,,73.82W0.0392,389,A7$PT,5.1T,,.0N00,,A3$GPGGA,175150.000,3546.0606,N,07839.6892,W,1,09,0.98,98.5,M,-33$GPGSA,A,3,06,19,17,25,12,05,09,23,02,,,,1.79,0.98,1.5*B
GRC155.00A34.66N08969,,.07.6001,,*1
GVT,48,,M00,,.0KA0$GPGGA,175151.000,3546.0606,N,07839.6892,W,1,09,0.98,98.5,M,-33.0,M,,*6D
$GPGSA,A,3,06,19,17,25,12,05,09,23,02,,,,1.79,0.98,1.5*B
GPM,71100A34.66N08969,,.15.90019,A4$PT,53,,M00,,.1KA0$GPGGA,175152.000,3546.0607,N,07839.6892,W,1,09,0.98,98.5,M,-33.$GPGSA,A,3,06,19,17,25,12,05,09,23,02,,,,1.79,0.98,1.5*B
GGV311,25,0,30,5044,951074,24,9,47$PS,,,01,8184,13,234,53,0,60,0054*2
GGV331,51,392,30,4,47$PM,71200A34.67N083.82W00,17,389,A4$PT,17,,M00,N00,,*9
$GPGGA,175153.000,3546.0607,N,07839.6892,W,1,09,0.98,98.5,M,-33.0,M,,*6E
$GPGSA,A,3,06,19,17,25,12,05,09,23,02,,,,1.79,0.98,1.5*B
GRC155.0,,5600,,73.82W00,260,389,A7$PT,1.3T,,.1N00,,*B$GPGGA,175154.000,3546.0606,N,07839.6892,W,1,09,0.98,98.5,M,-33$GPGSA,A,3,06,19,17,25,12,05,09,23,02,,,,1.79,0.98,1.00$PM,71400A34.66N089692W00,.3001,,*F
GVG05,,M00,,.1K,*B
$GPGGA,175155.000,3546.0606,N,07839.6892,W,1,09,0.98,98.5,M,-33.0,M,,*69
$GPGSA,A,3,06,19,17,25,12,05,09,23,02,,,,1.79,0.98,1.00B
GRC155.0,,5600,,73.82W00,97,001,,*A
GVG4.8T,,.1N00,,*F
$GPGGA,175156.000,3546.0606,N,07839.6892,W,1,09,0.98,98.5,M,-33.0,M,,*6A
$GPGSA,A,3,06,19,17,25,12,05,09,23,02,,,,1.79,0.98,1.5*B
$PM,71600A34.66N08969,,.02.50389,A4$PT,52,,M00,,.1KA0$GPGGA,175157.000,3546.0606,N,07839.6892,W,1,09,0.98,98.5,M,-33.$GPGSA,A,3,06,19,17,25,12,05,09,23,02,,,,1.79,0.98,1.5*B
GGV311,25,0,30,5044,951074,24,9,47$PS,,,01,8184,13,234,53,0,60,0054*2
GGV331,51,192,30,4,47$PM,71700A34.66N083.82W00,11,389,A4$PT,11,,M00,N00,,*7
$GPGGA,175158.000,3546.0607,N,07839.6892,W,1,09,0.98,98.5,M,-33.0,M,,*65
$GPGSA,A,3,06,19,17,25,12,05,09,23,02,,,,1.79,0.98,1.5*B
GRC155.00A34.67N08969,,.111,389,A7$PVG11,,M00,,.3KA3$GPGGA,175159.000,3546.0607,N,07839.6892,W,1,09,0.98,98.5,M,-33.0$GPGSA,A,3,06,19,17,25,12,05,09,23,02,,,,1.79,0.98,1.500$PM,71900A34.67N08969,,.13.7,389,A4$PT,77,,M00,,.1KA0$GPGGA,$GPGSA,A,3,06,19,17,25,12,05,09,23,02,,,,1.79,0.98,1.00$PM,72000A,5600,,73.82W00,4.3001,,*F
GVG,4.3T,,.1N00,,*A
$GPGGA,175201.000,3546.0607,N,07839.6893,W,1,09,0.98,98.5,M,-33.0,M,,*6B
$GPGSA,A,3,06,19,17,25,12,05,09,23,02,,,,1.80,0.98,1.5*D$PM,72100A34.67N08969,,.13717001,,*D
GVG371,,M00,,.1KA3$GPGGA,175202.000,3546.0607,N,07839.6893,W,1,09,0.98,98.5,M,-33.0,M,,*68
$GPGSA,A,3,06,19,17,25,12,05,09,23,02,,,,1.80,0.98,1.00$PS,,11,25,0,30,5044,95,9,41,8204*A$PS,,,01,8184,13,2,20,4254,GGV331,51,1,72,9093*7$PM,72200A34.67N08969,,.15.30389,A4$PT,04,,M00,,.1KA0$GPGGA,175203.000,3546.0607,N,07839.6893,W$GPGSA,A,3,06,19,17,25,12,05,09,23,02,,,,1.79,0.98,1.5*B
GRC150.00A34.67N08969,,.1339,389,A7$GVG339,,M00,,.2KA3$GPGGA,175204.000,3546.0607,N,07839.6893,W,1,09,0.98,98.5,M,-33$GPGSA,A,3,06,19,17,25,12,05,09,23,02,,,,1.80,0.98,1.00$PM,750.0,,5600,,73.83W00,1.9001,,*7$PT,1.9T,,.1N00,,*A
$GPGGA,175205.000,3546.0607,N,07839.6893,W,1,09,0.98,98.5,M,-33.0,M,,*6F
$GPGSA,A,3,06,19,17,25,12,05,09,23,02,,,,1.80,0.98,1.00$PM,72500A34.67N,73.83W00,.1001,,*E
GVG01,,M001N00,,*D
$GPGGA,175206.000,3546.0607,N,07839.6893,W,1,09,0.98,98.5,M,-33.0,M,,*6C
$GPGSA,A,3,06,19,17,25,12,05,09,23,02,,,,1.80,0.98,1.00$PM,150.0,,5600,,73.83W00,58,389,,*4
GVG4.0T,,.1N00,,*4
$GPGGA,175207.000,3546.0607,N,07839.6893,W,1,09,0.98,98.5,M,-33.0,M,,*6D
$GPGSA,A,3,06,19,17,25,12,05,09,23,02,,,,1.80,0.98,1.00$PS,,,0025,0,30,5044,95,9,41,8204*A
GGS,,,01,8184,13,2,20,4254,92,854*3
GGV331,51,1,72,9093*7
GRC,72700A34.67N08969,,.0247,389,,*C
GVG247,,M00,,.0KA3$GPGGA,175208.000,3546.0607,N,07839.6893,W,1,09,0.98,98.5,M,-33.0,M,,*62
$GPGSA,A,3,06,19,17,25,12,05,09,23,02,,,,1.80,0.98,1.00$PM,72800A34.67N089693W00,.1001,,*0
GVG56,,M00,,.1,,*E
$GPGGA,175209.000,3546.0607,N,07839.6893,W,1,09,0.98,98.5,M,-33.0,M,,*63
$GPGSA,A,3,06,19,17,25,12,05,09,23,02,,,,1.80,0.98,1.5*D
GRC152900A34.67N08969,,.14.7001,,*8$PT,81,,M00,,.1KA0$GPGGA,175210.000,3546.0607,N,07839.6893,W,1,09,0.98,98.5,M,-33.$GPGSA,A,3,06,19,17,25,12,05,09,23,02,,,,1.80,0.98,1.5*D
GRC151.0,,5600,,73.83,,.098,389,A7$PT,.9T,,.0N00,KA3$GPGGA,175211.000,3546.0607,N,07839.6893,W,1,09,0.98,98.5,M,-33.0$GPGSA,A,3,06,19,17,25,12,05,09,23,02,,,,1.80,0.98,1.500$PM,72100A34.67N08969,,.10.2001,,*E
GVG07,,M00,,.1KA3$GPGGA,175212.000,3546.0607,N,07839.6893,W,1,09,0.98,98.5,M,-33.0,M,,*69
$GPGSA,A,3,06,19,17,25,12,05,09,23,02,,,,1.80,0.98,1.5*0$PS,,,00,7304,65,3,71,1074,1,8204*A
GGV321,13,2,21,7194,5,4254,92,8,07$PS,,,02,5392,309093*7
GRC151.0,,5600,,73.83W,.0375,389,A7$PT,3.7T,,.0N00,KA3$GPGGA,175213.000,3546.0607,N,07839.6893,W,1,09,0.98,98.5,M,-33$GPGSA,A,3,06,19,17,25,12,05,09,23,02,,,,1.80,0.98,1.5*D
GRC151.0,A34.67N08969,,.0121,389,A7$PTG121,,M00,,.0KA3$GPGGA,175214.000,3546.0607,N,07839.6893,W,1,09,0.98,98.5,M,-33$GPGSA,A,3,06,19,17,25,12,05,09,23,02,,,,1.80,0.98,1.00$PM,72400A34.67,,73.83W00,37,389,A4$PT,37,,M,.0N00,,*6
$GPGGA,175215.000,3546.0607,N,07839.6893,W,1,09,0.98,98.5,M,-33.0,M,,*6E
$GPGSA,A,3,06,19,17,25,12,05,09,23,02,,,,1.80,0.98,1.00$PM,721.0,,5600,,73.83W00,0.0001,,*7$PT,0.0T,,.0N00,,*4
$GPGGA,175216.000,3546.0607,N,07839.6893,W,1,09,0.98,98.5,M,-33.0,M,,*6D
$GPGSA,A,3,06,19,17,25,12,05,09,23,02,,,,1.80,0.98,1.5*C
GRC151.0,,5600,,73.83W,.0392,389,A7$PT,2.0T,,.0N00,KA3$GPGGA,175217.000,3546.0607,N,07839.6893,W,1,09,0.98,98.5,M,-33$GPGSA,A,3,06,19,17,25,12,05,09,23,02,,,,1.80,0.98,1.5*C
GGV31,00,7304,65,3,71,1084,24,9,475
GGV321,13,2,21,7194,53,0,60,2,8,07$PS,,,02,5392,30,4,47
GRC151.0,,5600,,73.83W00,0.60389,A7$PT,0.6T,,.0N00,,*6
$GPGGA,175218.000,3546.0607,N,07839.6893,W,1,09,0.98,98.5,M,-33.0,M,,*63
$GPGSA,A,3,06,19,17,25,12,05,09,23,02,,,,1.80,0.98,1.10C
GRC151.0,,5600,,73.83W00,319001,,*0
GVG8.9T,,.0N00,,*F
$GPGGA,175219.000,3546.0607,N,07839.6893,W,1,09,0.99,98.5,M,-33.0,M,,*63
$GPGSA,A,3,06,19,17,25,12,05,09,23,02,,,,1.80,0.99,1.510$PM,72900A34.67N08969,,.0,66,389,A4$PT,66,,M00,,.0KA0A
$GPGGA,175220.000,3546.0607,N,07839.6893,W,1,09,0.98,98.5,M,-33.0,M,,*68
$GPGSA,A,3,06,19,17,25,12,05,09,23,02,,,,1.80,0.98,1.5*D
GRM,72000A34.67N08969,,.12.4001,,A4$PT,52,,M00,,.1KA0$GPGGA,175221.000,3546.0607,N,07839.6893,W,1,09,0.99,98.5,M,-33.$GPGSA,A,3,06,19,17,25,12,05,09,23,02,,,,1.80,0.99,1.10$PM,72100,,5600,,73.83W00,4.5001,,*F
GVT,4.5T,,.0N00,,*A
$GPGGA,175222.000,3546.0607,N,07839.6893,W,1,09,0.98,98.5,M,-33.0,M,,*6A
$GPGSA,A,3,06,19,17,25,12,05,09,23,02,,,,1.80,0.98,1.5*C
GGV3,,00,7304,65,3,71,1084,24,9,475
GGV321,13,2,21,7194,53,0,6092,8,07$PS,,,02,6392,30,4,47
GRC152.0,,5600,,73.83W00,.50089,A7$PT,.5T,,.0N00,,*C
$GPGGA,175223.000,3546.0607,N,07839.6893,W,1,09,0.99,98.5,M,-33.0,M,,*6A
$GPGSA,A,3,06,19,17,25,12,05,09,23,02,,,,1.80,0.99,1.510$PM,72300A34.67N08969,,.016.3001,,*E
GVG165,,M00,,.0KA3
$GPGGA,175224.000,3546.0607,N,07839.6893,W,1,09,0.99,98.5,M,-33.0,M,,*6D
$GPGSA,A,3,06,19,17,25,12,05,09,23,02,,,,1.80,0.99,1.5*D
GRC152.0,,5600,,73.83W0.0285,389,A7$PT,9.0T,,.0N00,,A3$GPGGA,175225.000,3546.0607,N,07839.6893,W,1,09,0.99,98.4,M,-33$GPGSA,A,3,06,19,17,25,12,05,09,23,02,,,,1.80,0.99,1.10$PM,72500A34.67N083.83W00,0.6001,,*E
GVG126,,M000N00,,*F
$GPGGA,175226.000,3546.0607,N,07839.6893,W,1,09,0.99,98.4,M,-33.0,M,,*6E
$GPGSA,A,3,06,19,17,25,12,05,09,23,02,,,,1.80,0.99,1.5*D
GRC172600A34.67N08969,,.000,389,A7E
GVG00,,M00,,.0KA3$GPGGA,175227.000,3546.0607,N,07839.6893,W,1,09,0.99,98.4,M,-33.0,M,,*6F
$GPGSA,A,3,06,19,17,25,12,05,09,23,02,,,,1.80,0.99,1.5*D
GGV311,0,7304,65,3,71,1084,24,9,47$PGV321,13,2,21,7194,53,0,60,005,07$PS,,,02,6392,30,4,47$PMC152.0,,5600,,73.83W00,$GPGGA,175228.000,3546.0607,N,07839.6893,W,1,09,0.99,98.4,M,-33.0,M,,*60
$GPGSA,A,3,06,19,17,25,12,05,09,23,02,,,,1.80,0.99,1.10$PM,72800,,5600,,73.83W00,79,389,A4$PVG3.8T,,.0N00,,*8
$GPGGA,175229.000,3546.0607,N,07839.6893,W,1,09,0.99,98.4,M,-33.0,M,,*61
$GPGSA,A,3,06,19,17,25,12,05,09,23,02,,,,1.80,0.99,1.5*D
GRC152900A34.67N08969,,.1173,389,A7
GVG173,,M00,,.1KA3$GPGGA,175230.000,3546.0607,N,07839.6893,W,1,09,0.99,98.4,M,-33.0,M,,*69
$GPGSA,A,3,06,19,17,25,12,05,09,23,02,,,,1.80,0.99,1.1*D
GRC153.0,,5600,,73.83W00,045,389,A7$PT,0.7T,,.1N00,,*8
$GPGGA,175231.000,3546.0607,N,07839.6893,W,1,09,0.99,98.4,M,-33.0,M,,*68
$GPGSA,A,3,06,19,17,25,12,05,09,23,02,,,,1.80,0.99,1.10$PM,72100A35600,,73.83W00,07,389,A4$PT,9.2T,,.1N00,,*2
$GPGGA,175232.000,3546.0607,N,07839.6893,W,1,09,0.99,98.4,M,-33.0,M,,*6B
$GPGSA,A,3,06,19,17,25,12,05,09,23,02,,,,1.80,0.99,1.10$PS,,,00,8314,65,3,71,5,9,41,8204*B
GGV321,13,2,21,3,0,50,4254,92,8,07$PS,,,02,1,1,72,8093*5
GRC153.0,,5600,,08969,,.0210,389,A7$PT,3.0T,,00,,.1KA3$GPGGA,175233.000,3546.0607,N,07839.6893,W,1,09,0.99,98.4,M,-33$GPGSA,A,3,06,19,17,25,12,05,09,23,02,,,,1.80,0.99,1.10$PM,72300A34.67N073.83W00,44,389,A4$PT,44,,M0.0N00,,*A
$GPGGA,175234.000,3546.0607,N,07839.6893,W,1,09,0.99,98.4,M,-33.0,M,,*6D
$GPGSA,A,3,06,19,17,25,12,05,09,23,02,,,,1.80,0.99,1.10
GRC153.0,,5600,,73.83W00,0.60389,A7$PT,0.6T,,.0N00,,*F
$GPGGA,175235.000,3546.0607,N,07839.6893,W,1,09,0.99,98.4,M,-33.0,M,,*6C
$GPGSA,A,3,06,19,17,25,12,05,09,23,02,,,,1.80,0.99,1.5*D
GPM,72500A34.67N08969,,.018,381,,*C
GVG18,,M00,,.0KA3$GPGGA,175236.000,3546.0607,N,07839.6893,W,1,09,0.99,98.4,M,-33.0,M,,*6F
$GPGSA,A,3,06,19,17,25,12,05,09,23,02,,,,1.80,0.99,1.10$PM,72600A34.67N089683W00,60,389,A4$PT,60,,M00,,.0,,*7
$GPGGA,175237.000,3546.0607,N,07839.6893,W,1,09,0.99,98.4,M,-33.0,M,,*6E
$GPGSA,A,3,06,19,17,25,12,05,09,23,02,,,,1.80,0.99,1.10$PS,,,00,8314,0,5044,95,9,41,8204*B
GGV321,1,8234,73,0,50,4254,92,8,07$PSV331,51,1,72,8093*5
GRC153.0,A34.67N08969,,.0261,389,A7$PTG261,,M00,,.1KA3$GPGGA,175238.000,3546.0607,N,07839.6893,W,1,09,0.99,98.4,M,-33$GPGSA,A,3,06,19,17,25,12,05,09,23,02,,,,1.80,0.99,1.10$PM,72800A34.67,,73.83W00,5.4001,,*0
GVG123,T,,.0N00,,*D
$GPGGA,175239.000,3546.0607,N,07839.6893,W,1,09,0.99,98.4,M,-33.0,M,,*60
$GPGSA,A,3,06,19,17,25,12,05,09,23,02,,,,1.80,0.99,1.10D
GRC153.0,,5600,,73.83W00,82,001,,*A
GVG6.6T,,.0N00,,*6
$GPGGA,175240.000,3546.0607,N,07839.6893,W,1,09,0.99,98.4,M,-33.0,M,,*6E
$GPGSA,A,3,06,19,17,25,12,05,09,23,02,,,,1.80,0.99,1.5*D
GRC154.00A34.67N08969,,.12.7001,,*3
GPT,18,,M00,,.1KA0$GPGGA,175241.000,3546.0607,N,07839.6893,W,1,09,0.99,98.4,M,-33.0,M,,*6F
$GPGSA,A,3,06,19,17,25,12,05,09,23,02,,,,1.80,0.99,1.10$PM,72100A34.67N083.83W00,02,389,A4$PT,02,,M000N00,,*9
$GPGGA,175242.000,3546.0607,N,07839.6893,W,1,09,0.99,98.4,M,-33.0,M,,*6C
$GPGSA,A,3,06,19,17,25,12,05,09,23,02,,,,1.80,0.99,1.5*D
GGV311,25,0,30,5044,95,9,4,24,9,47$PS,,,05,8234,73,0,5,53,0,60,0044*C
GGV331,51,1,7230,4,47$PM,72200A34.67N08969,W00,4.2001,,*9
GVG223,,M00,,.0,,*9
$GPGGA,175243.000,3546.0607,N,07839.6893,W,1,09,0.99,98.4,M,-33.0,M,,*6D
$GPGSA,A,3,06,19,17,25,12,05,09,23,02,,,,1.80,0.99,1.10
GRC154.0,,5600,,73.83W00,51,301,,*7
GVG6.9T,,.1N00,,*6
$GPGGA,175244.000,3546.0607,N,07839.6893,W,1,09,0.99,98.4,M,-33.0,M,,*6A
$GPGSA,A,3,06,19,17,25,12,05,09,23,02,,,,1.81,0.99,1.5*C
GRC154.0,,54.67N08969,,.12.1001,,*C
GVG251,,M00,,.1KA0$GPGGA,175245.000,3546.0607,N,07839.6893,W,1,09,0.99,98.4,M,-33.0,M,,*6B
$GPGSA,A,3,06,19,17,25,12,05,09,23,02,,,,1.81,0.99,1.10$PM,725.0,,5600,,73.83W00,4.1001,,*9
$PT,4.1T,,.1N00,,*D
$GPGGA,175246.000,3546.0607,N,07839.6893,W,1,09,0.99,98.4,M,-33.0,M,,*68
$GPGSA,A,3,06,19,17,25,12,05,09,23,02,,,,1.80,0.99,1.5*D
GRC154.0,,5600,,78969,,.01.7001,,*3
GVG1.7T,,.0,,.1KA0$GPGGA,175247.000,3546.0607,N,07839.6893,W,1,09,0.99,98.4,M,-33.0,M,,*69
$GPGSA,A,3,06,19,17,25,12,05,09,23,02,,,,1.81,0.99,1.5*C
GGV311,25,0,30,503,71,1084,24,9,47$PS,,,05,822,21,7194,53,0,60,0044*D
GGV33,02,6392,30,4,47$PM,72700A34.00,,73.83W00,45,389,A4$PT,459T,,.1N00,,*F
$GPGGA,175248.000,3546.0607,N,07839.6893,W,1,09,0.99,98.4,M,-33.0,M,,*66
$GPGSA,A,3,06,19,17,25,12,05,09,23,02,,,,1.81,0.99,1.10$PM,724.0,,5600,,73.83W00,4.8001,,*3$PT,4.8T,,.1N00,,*9
$GPGGA,175249.000,3546.0607,N,07839.6893,W,1,09,0.99,98.4,M,-33.0,M,,*67
$GPGSA,A,3,06,19,17,25,12,05,09,23,02,,,,1.81,0.99,1.10C
GRC154.0,,5600,,73.83W00,4.8,389,A7$PT,4.2T,,.1N00,,*4
$GPGGA,175250.000,3546.0607,N,07839.6893,W,1,09,0.99,98.4,M,-33.0,M,,*6F
$GPGSA,A,3,06,19,17,25,12,05,09,23,02,,,,1.81,0.99,1.10$PM,72000A,5600,,73.83W00,41,389,A4$PTG2.9T,,.0N00,,*2
$GPGGA,175251.000,3546.0607,N,07839.6893,W,1,09,0.99,98.4,M,-33.0,M,,*6E
$GPGSA,A,3,06,19,17,25,12,05,09,23,02,,,,1.81,0.99,1.5*C
GRC155.0,,56.67N08969,,.16.8001,,*1
GVG6.7,,M00,,.1KA0$GPGGA,175252.000,3546.0607,N,07839.6893,W,1,09,0.99,98.4,M,-33.0,M,,*6D
$GPGSA,A,3,06,19,17,25,12,05,09,23,02,,,,1.81,0.99,1.5*C
GGV311,25,0,30,5044,95,9,4,24,9,47$PS,,,05,8234,73,0,5,53,0,60,0044*D
GGV331,51,1,7230,4,47$PM,72200A34.67N089693W00,9.7001,,*B
GVG190,,M00,,.0,,*B
$GPGGA,175253.000,3546.0607,N,07839.6893,W,1,09,0.99,98.4,M,-33.0,M,,*6C
$GPGSA,A,3,06,19,17,25,12,05,09,23,02,,,,1.81,0.99,1.10$PMC155.0,,5600,,73.83W00,.0001,,A7$PT,.0T,,.1N00,,*7
$GPGGA,175254.000,3546.0607,N,07839.6893,W,1,09,0.99,98.4,M,-33.0,M,,*6B
$GPGSA,A,3,06,19,17,25,12,05,09,23,02,,,,1.81,0.99,1.510$PM,72400A34.67N08969,,00,69,389,A4$PT,69,,M00,,.1K,*5
$GPGGA,175255.000,3546.0607,N,07839.6893,W,1,09,0.99,98.4,M,-33.0,M,,*6A
$GPGSA,A,3,06,19,17,25,12,05,09,23,02,,,,1.81,0.99,1.5*C
GRC155.0,A34.67N08969,,.1397,389,A7$PTG397,,M00,,.1KA3$GPGGA,175256.000,3546.0607,N,07839.6893,W,1,09,0.99,98.4,M,-33$GPGSA,A,3,06,19,17,25,12,05,09,23,02,,,,1.81,0.99,1.5*C
GRC155.0,,56.67N08969,,.05.6001,,*B
GVG5.7,,M00,,.0KA0$GPGGA,175257.000,3546.0607,N,07839.6893,W,1,09,0.99,98.4,M,-33.0,M,,*68
$GPGSA,A,3,06,19,17,25,12,05,09,23,02,,,,1.81,0.99,1.5*C
GGV311,25,0,3,65,3,71,0084,24,9,47$PS,,,0513,2,21,7194,53,0,60,0044*D
GPS,,,02,6392,30,4,47$PM,72700,,5600,,73.83W00,55,389,A4$PVG8.3T,,.1N00,,*6
$GPGGA,175258.000,3546.0607,N,07839.6893,W,1,09,0.99,98.4,M,-33.0,M,,*67
$GPGSA,A,3,06,19,17,25,12,05,09,23,02,,,,1.81,0.99,1.10$PMC155.0,,5600,,73.83W00,0.70019,A7$PT,0.7T,,.0N00,,*F
$GPGGA,175259.000,3546.0607,N,07839.6893,W,1,09,0.99,98.4,M,-33.0,M,,*66
$GPGSA,A,3,06,19,17,25,12,05,09,23,02,,,,1.81,0.99,1.5*F
$PM,72900A34.67N08969,,.16.80089,A4$PT,30,,M00,,.2KA0$GPGGA,175300.000,3546.0607,N,07839.6893,W,1,09,0.99,98.4,M,-33.$GPGSA,A,3,06,19,17,25,12,05,09,23,02,,,,1.81,0.99,1.5*F
GRC153000A34.67N08969,,.1319,389,A76
GVG319,,M00,,.2KA3$GPGGA,175301.000,3546.0607,N,07839.6893,W,1,09,0.99,98.4,M,-33.0,M,,*6A
$GPGSA,A,3,06,19,17,25,12,05,09,23,02,,,,1.81,0.99,1.520$PM,73100A34.67N08969,,.0,92,389,A4$PT,92,,M00,,.2KA*3
$GPGGA,175302.000,3546.0607,N,07839.6893,W,1,09,0.99,98.4,M,-33.0,M,,*69
$GPGSA,A,3,06,19,17,25,12,05,09,23,02,,,,1.81,0.99,1.5*F
GGV311,25,0,30,504,71,0084,24,9,47$PS,,,05,823,21,7194,53,0,60,0044*D
GGV33102,6392,30,4,47$PM,73200A34.60,,73.83W00,5.9001,,*0
GVG3619T,,.1N00,,*5
$GPGGA,175303.000,3546.0607,N,07839.6893,W,1,09,0.99,98.4,M,-33.0,M,,*68
$GPGSA,A,3,06,19,17,25,12,05,09,23,02,,,,1.81,0.99,1.5*F
GRC150.0,A34.67N08969,,.0307,389,A7$PVG307,,M00,,.1KA3$GPGGA,175304.000,3546.0607,N,07839.6893,W,1,09,0.99,98.4,M,-33$GPGSA,A,3,06,19,17,25,12,05,09,23,02,,,,1.81,0.99,1.20$PM,73400A34.67N083.83W00,59,389,A4$PT,59,,M00,N00,,*2
$GPGGA,175305.000,3546.0607,N,07839.6893,W,1,09,0.99,98.4,M,-33.0,M,,*6E
$GPGSA,A,3,06,19,17,25,12,05,09,23,02,,,,1.81,0.99,1.5*F
GRC150500A34.67N08969,,.1368,389,A7
GVG368,,M00,,.1KA3$GPGGA,175306.000,3546.0607,N,07839.6893,W,1,09,0.99,98.4,M,-33.0,M,,*6D
$GPGSA,A,3,06,19,17,25,12,05,09,23,02,,,,1.81,0.99,1.5*F
GRC150.0,,5600,,78969,,.06.6001,,*9
GVG6.6T,,.0,,.1KA0$GPGGA,175307.000,3546.0607,N,07839.6893,W,1,09,0.99,98.4,M,-33.0,M,,*6C
$GPGSA,A,3,06,19,17,25,12,05,09,23,02,,,,1.81,0.99,1.5*F
GGV311,25,314,65,3,71,0084,24,9,47$PS,321,13,2,21,7194,53,0,60,0044*7$PS,,,02,6392,30,4,47$PM,730.0,,5600,,73.83W00,$GPGGA,175308.000,3546.0607,N,07839.6893,W,1,09,0.99,98.4,M,-33.0,M,,*63
$GPGSA,A,3,06,19,17,25,12,05,09,23,02,,,,1.81,0.99,1.5*F
GRC150.00A34.67N08969,,.14.9001,,*6
GVT,18,,M00,,.1KA0$GPGGA,175309.000,3546.0607,N,07839.6893,W,1,09,0.99,98.4,M,-33.0,M,,*62
$GPGSA,A,3,06,19,17,25,12,05,09,23,02,,,,1.81,0.99,1.5*F
GRC150.00A34.67N08969,,.11.0001,,*A
GVT,91,,M00,,.2KA0$GPGGA,175310.000,3546.0607,N,07839.6893,W,1,09,0.99,98.4,M,-33.0,M,,*6A
$GPGSA,A,3,06,19,17,25,12,05,09,23,02,,,,1.81,0.99,1.20
GRC151.0,,5600,,73.83W00,3.1,389,A7$PT,3.1T,,.0N00,,*E
$GPGGA,175311.000,3546.0607,N,07839.6893,W,1,09,0.99,98.4,M,-33.0,M,,*6B
$GPGSA,A,3,06,19,17,25,12,05,09,23,02,,,,1.81,0.99,1.2*F
GRC151.0,,5600,,73.83W00,2.7,389,A7$PT,2.2T,,.0N00,,*9
$GPGGA,175312.000,3546.0607,N,07839.6893,W,1,09,0.99,98.4,M,-33.0,M,,*68
$GPGSA,A,3,06,19,17,25,12,05,09,23,02,,,,1.81,0.99,1.5*F
GPS,,,00,8314,65,3,71,0084,24,204*B
GGV321,13,2,21,7194,53,054,92,8,17$PS,,,02,6392,30,4,3*5
GRC151.0,,5600,,73.83W00,147,389,A7$PT,1.3T,,.0N00,,*C$GPGGA,175313.000,3546.0607,N,07839.6893,W,1,09,0.99,98.4,M,-33$GPGSA,A,3,06,19,17,25,12,05,09,23,02,,,,1.81,0.99,1.5*F
GRC153300A34.67N08969,,.16.3001,,*D$PT,33,,M00,,.1KA0$GPGGA,175314.000,3546.0607,N,07839.6893,W,1,09,0.99,98.4,M,-33.$GPGSA,A,3,06,19,17,25,12,05,09,23,02,,,,1.81,0.99,1.5*F
GPM,73400A34.67N08969,,.0381,301,,*0
GVG381,,M00,,.1KA3$GPGGA,175315.000,3546.0607,N,07839.6893,W,1,09,0.99,98.4,M,-33.0,M,,*6F
$GPGSA,A,3,06,19,17,25,12,05,09,23,02,,,,1.81,0.99,1.5*F
GRC151.0,,56067N08969,,.0308,389,A7$PT,4.9T,M00,,.1KA3$GPGGA,175316.000,3546.0607,N,07839.6893,W,1,09,0.99,98.4,M,-33$GPGSA,A,3,06,19,17,25,12,05,09,23,02,,,,1.81,0.99,1.20$PRC151.0,,5600,,73.83W00,17,389,,*0
GVG3.9T,,.0N00,,*0
$GPGGA,175317.000,3546.0607,N,07839.6894,W,2,09,0.95,98.3,M,-33.0,M,0000,0000*62
$GPGSA,A,3,06,19,17,25,12,05,09,23,02,,,,1.26,.508*4
GGV311,25,0,30,5,3,71,0084,24,9,47$PS,,,05,8,2,21,7194,53,0,60,0044*D
GGV,,,02,6392,30,4,47$PM,73700A35600,,73.84W00,1.2001,,*9
GVG21.2T,,.1N00,,*C
$GPGGA,175318.000,3546.0608,N,07839.6895,W,2,09,0.95,98.3,M,-33.0,M,0000,0000*63
$GPGSA,A,3,06,19,17,25,12,05,09,23,02,,,,1.26,.508*4
GRC151.00A34.68N08969,,.2207,389,D7$GVG207,,M00,,.4KD3$GPGGA,175319.000,3546.0608,N,07839.6896,W,2,09,0.95,98.3,M,-33$GPGSA,A,3,06,19,17,25,12,05,09,23,02,,,,1.27,.508*5
GRC151.0,,5600,,73969,,.3205,389,D7$PT,0.2T,,.0,,.6KD3$GPGGA,175320.000,3546.0609,N,07839.6896,W,2,09,0.95,98.2,M,-33$GPGSA,A,3,06,19,17,25,12,05,09,23,02,,,,1.2609,.40$PRC152.0,,5600,,73.86W00,3.70019,D7$PT,3.7T,,.1N00,,*7
$GPGGA,175321.000,3546.0609,N,07839.6897,W,2,09,0.95,98.2,M,-33.0,M,0000,0000*6B
$GPGSA,A,3,06,19,17,25,12,05,09,23,02,,,,1.2609,.40$PM,73100A,5600,,73.87W00,30,389,D4$PTG5.4T,,.2N00,,*C
$GPGGA,175322.000,3546.0610,N,07839.6898,W,2,09,0.95,98.1,M,-33.0,M,0000,0000*6C
$GPGSA,A,3,06,19,17,25,12,05,09,23,02,,,,1.27,.9,.40$PS,,,00,8314,65,3,71,009,41,8294*3
GGV321,13,2,21,719,50,4254,92,8,07$PS,,,02,639,82,8093*A
GRC152.0,,5601,,73969,,.33.5001,,*7
GVG3.5T,,.3N,.6KD0$GPGGA,175323.000,3546.0610,N,07839.6899,W,2,09,0.95,98.1,M,-33.0,M,0000,0000*6C
$GPGSA,A,3,06,19,17,25,12,05,09,23,02,,,,1.2709,.8*5
GRC152.0,,5601,,73.89W00,2.5001,,*7
GVG3.5T,,.4N00,,*B
$GPGGA,175324.000,3546.0611,N,07839.6900,W,2,09,0.95,98.0,M,-33.0,M,0000,0000*6A
$GPGSA,A,3,06,19,17,25,12,05,09,23,02,,,,1.26,.50840$PM,73400A34.61N08960,,.53.3,389,D4$PT,33,,M00,,.9KD0$GPGGA,1753$GPGSA,A,3,06,19,17,25,12,05,09,23,02,,,,1.27,.508*5
GRC152.0,,5601,,78960,,.42.3001,,*1
GVG2.3T,,.0,,.7KD0$GPGGA,175326.000,3546.0611,N,07839.6902,W,2,09,0.95,97.9,M,-33.0,M,0000,0000*6C
$GPGSA,A,3,06,19,17,25,12,05,09,23,02,,,,1.27,.508*0$PM,73600A34.61N08960,,.13291001,,*D
GVG329,,M00,,.3KD3$GPGGA,175327.000,3546.0612,N,07839.6903,W,2,09,0.95,97.9,M,-33.0,M,0000,0000*6F
$GPGSA,A,3,06,19,17,25,12,05,09,23,02,,,,1.27,.508*5
GGV311,25,0,30,503,71,0084,24,8,47$PS,,,05,822,21,7194,53,0,60,0044*C
GGV33,02,6392,30,4,47$PM,73700A34601,,73.93W00,6.4001,,*0
GVG24.4T,,.2N00,,*B
$GPGGA,175328.000,3546.0612,N,07839.6904,W,2,09,0.95,97.9,M,-33.0,M,0000,0000*67
$GPGSA,A,3,06,19,17,25,12,05,09,23,02,,,,1.2709,.40
GRC152.0,,5601,,73.94W00,3.9,389,D7$PT,3.9T,,.2N00,,*C
$GPGGA,175329.000,3546.0612,N,07839.6904,W,2,09,0.95,97.8,M,-33.0,M,0000,0000*67
$GPGSA,A,3,06,19,17,25,12,05,09,23,02,,,,1.27,.508*5
GRC152.0,,56.62N08960,,.2253,389,D7$PT,3.3,,M00,,.4KD3$GPGGA,175330.000,3546.0612,N,07839.6905,W,2,09,0.95,97.7,M,-33$GPGSA,A,3,06,19,17,25,12,05,09,23,02,,,,1.2709,.40$PM,73000,,5601,,73.95W00,3.2001,,*0
$PT,3.2T,,.2N00,,*B
$GPGGA,175331.000,3546.0612,N,07839.6905,W,2,09,0.95,97.6,M,-33.0,M,0000,0000*61
$GPGSA,A,3,06,19,17,25,12,05,09,23,02,,,,1.27,09,.40$PM,73100A34.62N083.95W00,0.6001,,*0
GVG255,,M002N00,,*D
$GPGGA,175332.000,3546.0612,N,07839.6904,W,2,09,0.95,97.5,M,-33.0,M,0000,0000*60
$GPGSA,A,3,06,19,17,25,12,05,09,23,02,,,,1.27,.50.40$PS,,,00,8314,65,3,71,008441,8294*3
GGV321,13,2,21,719450,4254,92,8,17$PS,,,02,6392,2,8093*2
GRC153.0,,5601,,73.94,,.16.3001,,*2
GVG6.3T,,.1N003KD0$GPGGA,175333.000,3546.0612,N,07839.6903,W,2,09,0.95,97.4,M,-33.0,M,0000,0000*67
$GPGSA,A,3,06,19,17,25,12,05,09,23,02,,,,1.2709,.40$PM,753.0,,5601,,73.93W00,82,389,D*9
GVG5.6T,,.2N00,,*6
$GPGGA,175334.000,3546.0611,N,07839.6903,W,2,09,0.95,97.3,M,-33.0,M,0000,0000*64
$GPGSA,A,3,06,19,17,25,12,05,09,23,02,,,,1.27,09,.40$PM,73400A34.61N08960,,00,05,389,D4$PT,05,,M00,,.3K,*B
$GPGGA,175335.000,3546.0611,N,07839.6902,W,2,09,0.95,97.3,M,-33.0,M,0000,0000*64
$GPGSA,A,3,06,19,17,25,12,05,09,23,02,,,,1.27,.508*5
GRM,73500A34.61N089602W00,65,389,D4$PT,6.7T,,.2N00,,*B
$GPGGA,175336.000,3546.0611,N,07839.6902,W,2,09,0.95,97.2,M,-33.0,M,0000,0000*66
$GPGSA,A,3,06,19,17,25,12,05,09,23,02,,,,1.27,0.508*5
GRC153.0,A34.61N08960,,.26.7,389,D4$PT,45,,M002N00,,*9
$GPGGA,175337.000,3546.0611,N,07839.6903,W,2,09,0.95,97.2,M,-33.0,M,0000,0000*66
$GPGSA,A,3,06,19,17,25,12,05,09,23,02,,,,1.27,09,.40$PGV311,25,0,30,505471,0084,24,8,47$PSV321,13,2,21,7194,534254,92$PT,.5T,,.1N00,,*F
$GPGGA,175338.000,3546.0611,N,07839.6903,W,2,09,0.95,97.2,M,-33.0,M,0000,0000*69
